[
{"name": "Oberpfaffstallerhof", "type": "Appartamento", "address": "tannstrasse 13, 39054 Collalbo, Italia", "lat": "46.55027400", "lon": "11.45687300", "checkin_from": "14:00", "checkin_to": "22:00", "checkout_from": "09:00", "checkout_to": "10:00", "Animali": true, "Parcheggio": true, "Internet": true, "Servizi benessere": false, "Servizi di ristorazione": true},
{"name": "Hotel Stella Alpina", "type": "Hotel", "address": "Via Prai de Mont 9, 38037 Bellamonte, Italia", "lat": "46.31349900", "lon": "11.66133400", "checkin_from": "16:00", "checkin_to": "21:00", "checkout_from": null, "checkout_to": "10:00", "Animali": false, "Parcheggio": true, "Internet": true, "Servizi benessere": true, "Servizi di ristorazione": true},
{"name": "Hotel Monte Bondone", "type": "Hotel", "address": "Via Dei Falchi 19, localit\u00e0 Vaneze , 38123 Vaneze, Italia", "lat": "46.05340485", "lon": "11.07167333", "checkin_from": "14:00", "checkin_to": "22:00", "checkout_from": null, "checkout_to": "10:00", "Animali": false, "Parcheggio": true, "Internet": true, "Servizi benessere": false, "Servizi di ristorazione": true},
{"name": "Garni Flurida", "type": "Bed & breakfast", "address": "Strada Runcac 2, 39036 Badia, Italia", "lat": "46.61070800", "lon": "11.89273800", "checkin_from": "14:00", "checkin_to": "21:00", "checkout_from": "07:30", "checkout_to": "10:00", "Animali": true, "Parcheggio": true, "Internet": true, "Servizi benessere": false, "Servizi di ristorazione": false},
{"name": "Garda Hotel Forte Charme", "type": "Hotel", "address": "Via Europa, 54, 38069 Nago-Torbole, Italia", "lat": "45.87798390", "lon": "10.88644266", "checkin_from": "13:30", "checkin_to": "00:00", "checkout_from": "07:00", "checkout_to": "12:00", "Animali": true, "Parcheggio": true, "Internet": true, "Servizi benessere": false, "Servizi di ristorazione": true},
{"name": "CEJM Apartments Merano", "type": "Appartamenti", "address": "26 Via Schiller, 39012 Merano, Italia", "lat": "46.66722900", "lon": "11.15677100", "checkin_from": "14:00", "checkin_to": "18:00", "checkout_from": "07:00", "checkout_to": "10:00", "Animali": true, "Parcheggio": true, "Internet": true, "Servizi benessere": false, "Servizi di ristorazione": false},
{"name": "Les Dolomites Mountain Lodges", "type": "Residence", "address": "Strada Vi-Laguscel 19 / Longiar\u00fa, 39030 San Martino in Badia, Italia", "lat": "46.64318980", "lon": "11.86424925", "checkin_from": "14:30", "checkin_to": "22:00", "checkout_from": null, "checkout_to": "10:00", "Animali": true, "Parcheggio": true, "Internet": true, "Servizi benessere": true, "Servizi di ristorazione": true},
{"name": "Grand Hotel Liberty", "type": "Hotel", "address": "Viale Carducci 3/5, 38066 Riva del Garda, Italia", "lat": "45.88594933", "lon": "10.84576160", "checkin_from": "14:00", "checkin_to": null, "checkout_from": "07:00", "checkout_to": "10:00", "Animali": false, "Parcheggio": true, "Internet": true, "Servizi benessere": false, "Servizi di ristorazione": true},
{"name": "Hotel Garn\u00ec Zanella", "type": "Hotel", "address": "Via 3 Novembre 9, 38026 Fucine, Italia", "lat": "46.31037415", "lon": "10.73018789", "checkin_from": "14:00", "checkin_to": "22:00", "checkout_from": "07:30", "checkout_to": "10:00", "Animali": false, "Parcheggio": true, "Internet": true, "Servizi benessere": false, "Servizi di ristorazione": false},
{"name": "Camping Daino", "type": "Campeggio", "address": "Via Daino 43, 38070 Pietramurata, Italia", "lat": "46.02369837", "lon": "10.94381213", "checkin_from": "14:00", "checkin_to": "18:00", "checkout_from": "08:00", "checkout_to": "10:00", "Animali": true, "Parcheggio": true, "Internet": true, "Servizi benessere": false, "Servizi di ristorazione": true},
{"name": "Tulipa Natural Home", "type": "Residence", "address": "Via San Michele 4, 38067 Mezzolago, Italia", "lat": "45.88098380", "lon": "10.75101370", "checkin_from": "14:00", "checkin_to": "22:00", "checkout_from": "00:00", "checkout_to": "10:30", "Animali": false, "Parcheggio": true, "Internet": true, "Servizi benessere": true, "Servizi di ristorazione": false},
{"name": "Gaia Residence Hotel", "type": "Residence", "address": "Via Rial 5, 38020 Mezzana, Italia", "lat": "46.31534091", "lon": "10.80438256", "checkin_from": "15:00", "checkin_to": "21:00", "checkout_from": "07:00", "checkout_to": "10:00", "Animali": true, "Parcheggio": true, "Internet": true, "Servizi benessere": false, "Servizi di ristorazione": true},
{"name": "Home Suite Home", "type": "Alloggio in famiglia", "address": "Via Hasler 15, 39012 Merano, Italia", "lat": "46.67431700", "lon": "11.18332400", "checkin_from": "14:00", "checkin_to": "16:00", "checkout_from": "08:00", "checkout_to": "10:00", "Animali": false, "Parcheggio": true, "Internet": true, "Servizi benessere": false, "Servizi di ristorazione": true},
{"name": "Du Lac Et Du Parc Grand Resort", "type": "Hotel", "address": "Viale Rovereto 44, 38066 Riva del Garda, Italia", "lat": "45.88246903", "lon": "10.85355073", "checkin_from": "15:00", "checkin_to": "23:00", "checkout_from": "07:00", "checkout_to": "11:00", "Animali": true, "Parcheggio": true, "Internet": true, "Servizi benessere": false, "Servizi di ristorazione": true},
{"name": "Schupferhof", "type": "Appartamento", "address": "Hennewinkl 6 , 39050 Monte San Pietro, Italia", "lat": "46.39881979", "lon": "11.39148956", "checkin_from": "14:00", "checkin_to": "22:00", "checkout_from": "08:00", "checkout_to": "10:00", "Animali": true, "Parcheggio": true, "Internet": true, "Servizi benessere": true, "Servizi di ristorazione": true},
{"name": "Casa Alberta", "type": "Appartamenti", "address": "Via Alzer 46  , 38067 Pieve di Ledro, Italia", "lat": "45.88596426", "lon": "10.73004305", "checkin_from": "14:00", "checkin_to": "19:00", "checkout_from": null, "checkout_to": "09:00", "Animali": true, "Parcheggio": true, "Internet": true, "Servizi benessere": false, "Servizi di ristorazione": false},
{"name": "Top Residence Kurz Senales", "type": "Residence", "address": "Kurzras 115, 39020 Maso Corto, Italia", "lat": "46.75672115", "lon": "10.78196526", "checkin_from": "16:00", "checkin_to": "00:00", "checkout_from": "08:00", "checkout_to": "10:00", "Animali": false, "Parcheggio": true, "Internet": true, "Servizi benessere": false, "Servizi di ristorazione": true},
{"name": "DV Chalet Boutique Hotel & Spa", "type": "Hotel", "address": "Via Castelletto Inferiore 10, 38086 Madonna di Campiglio, Italia", "lat": "46.22350817", "lon": "10.82567453", "checkin_from": "15:00", "checkin_to": null, "checkout_from": null, "checkout_to": "11:00", "Animali": true, "Parcheggio": true, "Internet": true, "Servizi benessere": false, "Servizi di ristorazione": true},
{"name": "Dog Friendly Village alle Terrazze 84 - Ideale per coppie", "type": "Appartamenti", "address": "Via Valmaria 84, 38067 Pieve di Ledro, Italia", "lat": "45.88198239", "lon": "10.73304713", "checkin_from": "15:30", "checkin_to": "18:30", "checkout_from": "09:00", "checkout_to": "10:00", "Animali": true, "Parcheggio": true, "Internet": true, "Servizi benessere": false, "Servizi di ristorazione": false},
{"name": "Appartement Elke", "type": "Residence", "address": "30 Via San Cassiano, 39022 Lagundo, Italia", "lat": "46.68802800", "lon": "11.12957700", "checkin_from": "15:00", "checkin_to": "18:00", "checkout_from": "07:00", "checkout_to": "09:00", "Animali": true, "Parcheggio": true, "Internet": true, "Servizi benessere": false, "Servizi di ristorazione": false},
{"name": "Agritur Maso Flonkeri", "type": "Bed & breakfast", "address": "Via Mandola 37, 38049 Bosentino, Italia", "lat": "46.00020521", "lon": "11.21889301", "checkin_from": "15:00", "checkin_to": "21:00", "checkout_from": "07:00", "checkout_to": "10:00", "Animali": false, "Parcheggio": true, "Internet": true, "Servizi benessere": false, "Servizi di ristorazione": true},
{"name": "Fallerhof", "type": "Appartamenti", "address": "Kirchweg 14, 39040 Villnoss, Italia", "lat": "46.64375061", "lon": "11.71804447", "checkin_from": "16:00", "checkin_to": "20:00", "checkout_from": "06:30", "checkout_to": "10:00", "Animali": true, "Parcheggio": true, "Internet": true, "Servizi benessere": false, "Servizi di ristorazione": false},
{"name": "Hotel Cime D'Oro", "type": "Hotel", "address": "Via Car\u00e8 Alto 2, 38086 Madonna di Campiglio, Italia", "lat": "46.22273063", "lon": "10.82287699", "checkin_from": "12:00", "checkin_to": "00:00", "checkout_from": "07:00", "checkout_to": "12:00", "Animali": false, "Parcheggio": true, "Internet": true, "Servizi benessere": false, "Servizi di ristorazione": true},
{"name": "Grand Hotel Imperial", "type": "Hotel", "address": "Via Silva Domini 1, 38056 Levico Terme, Italia", "lat": "46.01241049", "lon": "11.30594283", "checkin_from": "15:00", "checkin_to": "00:00", "checkout_from": "07:00", "checkout_to": "11:00", "Animali": true, "Parcheggio": true, "Internet": true, "Servizi benessere": false, "Servizi di ristorazione": true},
{"name": "Traubenhof", "type": "Appartamenti", "address": "Weinstrasse 12, 39040 Magr\u00e8 all'Adige, Italia", "lat": "46.29073663", "lon": "11.21157950", "checkin_from": "15:00", "checkin_to": "21:00", "checkout_from": "08:00", "checkout_to": "10:00", "Animali": false, "Parcheggio": true, "Internet": true, "Servizi benessere": false, "Servizi di ristorazione": false},
{"name": "Tuberis Nature & Spa Resort", "type": "Resort", "address": "St. Johannstrasse Nr. 39, 39020 Tubre, Italia", "lat": "46.64598300", "lon": "10.46455200", "checkin_from": "14:00", "checkin_to": "22:00", "checkout_from": null, "checkout_to": "11:00", "Animali": true, "Parcheggio": true, "Internet": true, "Servizi benessere": false, "Servizi di ristorazione": true},
{"name": "Ambiez Residencehotel", "type": "Residence", "address": "Via Cima Tosa 109, 38086 Madonna di Campiglio, Italia", "lat": "46.23530530", "lon": "10.83319545", "checkin_from": "16:00", "checkin_to": "22:00", "checkout_from": null, "checkout_to": "10:00", "Animali": false, "Parcheggio": true, "Internet": true, "Servizi benessere": false, "Servizi di ristorazione": true},
{"name": "Residence Nordik", "type": "Appartamenti", "address": "22 Via Hocheck, 39030 Sesto, Italia", "lat": "46.68928300", "lon": "12.36988900", "checkin_from": "14:00", "checkin_to": "22:00", "checkout_from": "00:00", "checkout_to": "10:00", "Animali": true, "Parcheggio": true, "Internet": true, "Servizi benessere": false, "Servizi di ristorazione": false},
{"name": "Hotel residence MaVie", "type": "Hotel", "address": "38 Mitterplars, 39022 Lagundo, Italia", "lat": "46.68340800", "lon": "11.11161000", "checkin_from": "14:00", "checkin_to": "20:00", "checkout_from": "08:00", "checkout_to": "10:00", "Animali": true, "Parcheggio": true, "Internet": true, "Servizi benessere": false, "Servizi di ristorazione": true},
{"name": "Quellenhof Luxury Resort Passeier", "type": "Hotel", "address": "Passeirerstra\u00dfe 47, 39010 San Martino in Passiria, Italia", "lat": "46.74687861", "lon": "11.20677173", "checkin_from": "15:00", "checkin_to": "22:00", "checkout_from": "07:30", "checkout_to": "11:00", "Animali": true, "Parcheggio": true, "Internet": true, "Servizi benessere": false, "Servizi di ristorazione": true},
{"name": "Apartments Villa Rosa", "type": "Appartamenti", "address": "La Poza 43, 39048 Selva di Val Gardena, Italia", "lat": "46.55900593", "lon": "11.74171757", "checkin_from": "14:00", "checkin_to": "22:00", "checkout_from": "07:00", "checkout_to": "09:00", "Animali": false, "Parcheggio": true, "Internet": true, "Servizi benessere": false, "Servizi di ristorazione": false},
{"name": "Apartment Vaiolet", "type": "Appartamenti", "address": "Mulin d\u00b4Odum 3, 39047 Santa Cristina in Val Gardena, Italia", "lat": "46.56078569", "lon": "11.70639968", "checkin_from": "14:00", "checkin_to": "00:00", "checkout_from": "06:00", "checkout_to": "10:00", "Animali": false, "Parcheggio": true, "Internet": true, "Servizi benessere": false, "Servizi di ristorazione": false},
{"name": "Naglerhof", "type": "Appartamenti", "address": "Altdorfstasse Froi 29 Naglerhof, 39027 Curon Venosta, Italia", "lat": "46.82760942", "lon": "10.50819702", "checkin_from": "15:00", "checkin_to": "20:00", "checkout_from": "06:00", "checkout_to": "09:30", "Animali": true, "Parcheggio": true, "Internet": true, "Servizi benessere": false, "Servizi di ristorazione": false},
{"name": "Hotel Primo", "type": "Hotel", "address": "Viale Rovereto, 59, 38066 Riva del Garda, Italia", "lat": "45.88137112", "lon": "10.85482746", "checkin_from": "15:00", "checkin_to": "21:00", "checkout_from": "08:00", "checkout_to": "10:00", "Animali": true, "Parcheggio": true, "Internet": true, "Servizi benessere": false, "Servizi di ristorazione": true},
{"name": "Ledro Mountain Chalet", "type": "Chalet", "address": "Loc. Val Molini, Bezzecca, 38067 Ledro, Italia", "lat": "45.89661669", "lon": "10.70502955", "checkin_from": "14:00", "checkin_to": "20:00", "checkout_from": null, "checkout_to": "09:00", "Animali": true, "Parcheggio": true, "Internet": true, "Servizi benessere": false, "Servizi di ristorazione": true},
{"name": "Antico Fienile Agritur", "type": "Agriturismo", "address": "Via dei Camorzi 17, 38016 Mezzocorona, Italia", "lat": "46.21168000", "lon": "11.11427000", "checkin_from": "15:00", "checkin_to": "19:00", "checkout_from": "07:30", "checkout_to": "10:00", "Animali": true, "Parcheggio": true, "Internet": true, "Servizi benessere": false, "Servizi di ristorazione": true},
{"name": "Chalet Apartments Ambria", "type": "Appartamenti", "address": "Str. Pla\u00f6n, 5, 39036 La Villa, Italia", "lat": "46.58262719", "lon": "11.89752478", "checkin_from": "15:00", "checkin_to": "19:00", "checkout_from": "04:00", "checkout_to": "09:00", "Animali": false, "Parcheggio": true, "Internet": true, "Servizi benessere": false, "Servizi di ristorazione": false},
{"name": "Traubenhof", "type": "Appartamenti", "address": "Weinstrasse 12, 39040 Magr\u00e8 all'Adige, Italia", "lat": "46.29073663", "lon": "11.21157950", "checkin_from": "15:00", "checkin_to": "21:00", "checkout_from": "08:00", "checkout_to": "10:00", "Animali": false, "Parcheggio": true, "Internet": true, "Servizi benessere": false, "Servizi di ristorazione": false},
{"name": "Aparthotel Des Alpes", "type": "Residence", "address": "Loc. Marco 131, 38033 Cavalese, Italia", "lat": "46.29022375", "lon": "11.47820771", "checkin_from": "16:00", "checkin_to": "20:00", "checkout_from": null, "checkout_to": "09:30", "Animali": true, "Parcheggio": true, "Internet": true, "Servizi benessere": false, "Servizi di ristorazione": true},
{"name": "Hotel Stella Alpina", "type": "Hotel", "address": "Via Prai de Mont 9, 38037 Bellamonte, Italia", "lat": "46.31349900", "lon": "11.66133400", "checkin_from": "16:00", "checkin_to": "21:00", "checkout_from": null, "checkout_to": "10:00", "Animali": false, "Parcheggio": true, "Internet": true, "Servizi benessere": true, "Servizi di ristorazione": true},
{"name": "Camping Daino", "type": "Campeggio", "address": "Via Daino 43, 38070 Pietramurata, Italia", "lat": "46.02369837", "lon": "10.94381213", "checkin_from": "14:00", "checkin_to": "18:00", "checkout_from": "08:00", "checkout_to": "10:00", "Animali": true, "Parcheggio": true, "Internet": true, "Servizi benessere": false, "Servizi di ristorazione": true},
{"name": "Hotel Cime D'Oro", "type": "Hotel", "address": "Via Car\u00e8 Alto 2, 38086 Madonna di Campiglio, Italia", "lat": "46.22273063", "lon": "10.82287699", "checkin_from": "12:00", "checkin_to": "00:00", "checkout_from": "07:00", "checkout_to": "12:00", "Animali": false, "Parcheggio": true, "Internet": true, "Servizi benessere": false, "Servizi di ristorazione": true},
{"name": "Oberpfaffstallerhof", "type": "Appartamento", "address": "tannstrasse 13, 39054 Collalbo, Italia", "lat": "46.55027400", "lon": "11.45687300", "checkin_from": "14:00", "checkin_to": "22:00", "checkout_from": "09:00", "checkout_to": "10:00", "Animali": true, "Parcheggio": true, "Internet": true, "Servizi benessere": false, "Servizi di ristorazione": true},
{"name": "Grand Hotel Imperial", "type": "Hotel", "address": "Via Silva Domini 1, 38056 Levico Terme, Italia", "lat": "46.01241049", "lon": "11.30594283", "checkin_from": "15:00", "checkin_to": "00:00", "checkout_from": "07:00", "checkout_to": "11:00", "Animali": true, "Parcheggio": true, "Internet": true, "Servizi benessere": false, "Servizi di ristorazione": true},
{"name": "Garni Flurida", "type": "Bed & breakfast", "address": "Strada Runcac 2, 39036 Badia, Italia", "lat": "46.61070800", "lon": "11.89273800", "checkin_from": "14:00", "checkin_to": "21:00", "checkout_from": "07:30", "checkout_to": "10:00", "Animali": true, "Parcheggio": true, "Internet": true, "Servizi benessere": false, "Servizi di ristorazione": false},
{"name": "CEJM Apartments Merano", "type": "Appartamenti", "address": "26 Via Schiller, 39012 Merano, Italia", "lat": "46.66722900", "lon": "11.15677100", "checkin_from": "14:00", "checkin_to": "18:00", "checkout_from": "07:00", "checkout_to": "10:00", "Animali": true, "Parcheggio": true, "Internet": true, "Servizi benessere": false, "Servizi di ristorazione": false},
{"name": "Garda Hotel Forte Charme", "type": "Hotel", "address": "Via Europa, 54, 38069 Nago-Torbole, Italia", "lat": "45.87798390", "lon": "10.88644266", "checkin_from": "13:30", "checkin_to": "00:00", "checkout_from": "07:00", "checkout_to": "12:00", "Animali": true, "Parcheggio": true, "Internet": true, "Servizi benessere": false, "Servizi di ristorazione": true},
{"name": "Les Dolomites Mountain Lodges", "type": "Residence", "address": "Strada Vi-Laguscel 19 / Longiar\u00fa, 39030 San Martino in Badia, Italia", "lat": "46.64318980", "lon": "11.86424925", "checkin_from": "14:30", "checkin_to": "22:00", "checkout_from": null, "checkout_to": "10:00", "Animali": true, "Parcheggio": true, "Internet": true, "Servizi benessere": true, "Servizi di ristorazione": true},
{"name": "Montanara Chalet", "type": "Appartamenti", "address": "Via Ottorino Carletti, 38010 Fai della Paganella, Italia", "lat": "46.17514070", "lon": "11.06389350", "checkin_from": "14:00", "checkin_to": "22:00", "checkout_from": "00:00", "checkout_to": "10:00", "Animali": true, "Parcheggio": true, "Internet": true, "Servizi benessere": false, "Servizi di ristorazione": true},
{"name": "Stadt Hotel Citt\u00e0", "type": "Hotel", "address": "Piazza Walther 21, 39100 Bolzano, Italia", "lat": "46.49891035", "lon": "11.35455734", "checkin_from": "14:00", "checkin_to": null, "checkout_from": null, "checkout_to": "12:00", "Animali": true, "Parcheggio": true, "Internet": true, "Servizi benessere": true, "Servizi di ristorazione": true},
{"name": "Hotel Garn\u00ec Caminetto", "type": "Hotel", "address": "Via Adamello 4, 38086 Madonna di Campiglio, Italia", "lat": "46.22795334", "lon": "10.82624714", "checkin_from": "15:00", "checkin_to": "22:00", "checkout_from": "07:30", "checkout_to": "12:00", "Animali": false, "Parcheggio": true, "Internet": true, "Servizi benessere": false, "Servizi di ristorazione": true},
{"name": "RivAppartamenti", "type": "Appartamenti", "address": "via maffei 17, 38066 Riva del Garda, Italia", "lat": "45.88516874", "lon": "10.84015413", "checkin_from": "15:00", "checkin_to": "21:00", "checkout_from": "09:00", "checkout_to": "10:00", "Animali": false, "Parcheggio": true, "Internet": true, "Servizi benessere": false, "Servizi di ristorazione": false},
{"name": "Chalet Morin", "type": "Appartamento", "address": "10 Strada Restalt, 39030 San Martino in Badia, Italia", "lat": "46.67959410", "lon": "11.89672002", "checkin_from": "16:00", "checkin_to": "21:00", "checkout_from": "06:00", "checkout_to": "10:00", "Animali": true, "Parcheggio": true, "Internet": true, "Servizi benessere": false, "Servizi di ristorazione": false},
{"name": "Garn\u00ec Princess Apartments", "type": "Residence", "address": "Strada de Treve 12, 38032 Canazei, Italia", "lat": "46.45710664", "lon": "11.79607630", "checkin_from": "16:00", "checkin_to": "20:00", "checkout_from": "08:00", "checkout_to": "09:30", "Animali": false, "Parcheggio": true, "Internet": true, "Servizi benessere": false, "Servizi di ristorazione": true},
{"name": "Alpin Garni die kleine Post", "type": "Hotel", "address": "Sulden 20, 39029 Solda, Italia", "lat": "46.52787807", "lon": "10.58311294", "checkin_from": "14:00", "checkin_to": "21:00", "checkout_from": "07:30", "checkout_to": "10:00", "Animali": true, "Parcheggio": true, "Internet": true, "Servizi benessere": true, "Servizi di ristorazione": true},
{"name": "Residence Moritz", "type": "Appartamenti", "address": "34 Via Falzeben, 39010 Avelengo, Italia", "lat": "46.65345300", "lon": "11.22107000", "checkin_from": "15:00", "checkin_to": "20:00", "checkout_from": "07:00", "checkout_to": "10:00", "Animali": false, "Parcheggio": true, "Internet": true, "Servizi benessere": true, "Servizi di ristorazione": true},
{"name": "Apartments La Baita", "type": "Appartamenti", "address": "Strada Plesdinaz 134, 39047 Santa Cristina in Val Gardena, Italia", "lat": "46.56668109", "lon": "11.72847304", "checkin_from": "13:00", "checkin_to": null, "checkout_from": null, "checkout_to": "10:00", "Animali": true, "Parcheggio": true, "Internet": true, "Servizi benessere": false, "Servizi di ristorazione": false},
{"name": "Hotel Koflerhof Wellness & SPA", "type": "Hotel", "address": "Oberrasen  91, 39030 Rasun di Sopra, Italia", "lat": "46.78843350", "lon": "12.05395031", "checkin_from": "14:30", "checkin_to": "21:30", "checkout_from": "07:30", "checkout_to": "10:00", "Animali": true, "Parcheggio": true, "Internet": true, "Servizi benessere": false, "Servizi di ristorazione": true},
{"name": "Hotel Pradell", "type": "Hotel", "address": "Strasse Ronc 7, 39040 Ortisei, Italia", "lat": "46.57048755", "lon": "11.66686265", "checkin_from": "11:00", "checkin_to": "23:30", "checkout_from": "07:00", "checkout_to": "10:30", "Animali": true, "Parcheggio": true, "Internet": true, "Servizi benessere": true, "Servizi di ristorazione": true},
{"name": "Hotel Lido Palace - The Leading Hotels of the World", "type": "Hotel", "address": "Via Carducci 10, 38066 Riva del Garda, Italia", "lat": "45.88557965", "lon": "10.84711075", "checkin_from": "15:00", "checkin_to": "00:00", "checkout_from": "05:00", "checkout_to": "12:00", "Animali": true, "Parcheggio": true, "Internet": true, "Servizi benessere": false, "Servizi di ristorazione": true},
{"name": "Hotel Isola Verde", "type": "Hotel", "address": "Loc. Porino, 1, 38069 Nago-Torbole, Italia", "lat": "45.88528278", "lon": "10.88677526", "checkin_from": "15:00", "checkin_to": "22:00", "checkout_from": "08:00", "checkout_to": "10:00", "Animali": true, "Parcheggio": true, "Internet": true, "Servizi benessere": false, "Servizi di ristorazione": true},
{"name": "Ausserebnerhof", "type": "Appartamenti", "address": "Reinswald 4, 39058 Valdurna, Italia", "lat": "46.70082256", "lon": "11.41305685", "checkin_from": "13:00", "checkin_to": "21:00", "checkout_from": "07:30", "checkout_to": "10:00", "Animali": true, "Parcheggio": true, "Internet": true, "Servizi benessere": false, "Servizi di ristorazione": false},
{"name": "Gspoi-Hof", "type": "Residence", "address": "Tsch\u00f6fas 17B, 39040 Laion, Italia", "lat": "46.60914794", "lon": "11.58974066", "checkin_from": "12:00", "checkin_to": "22:00", "checkout_from": null, "checkout_to": "10:00", "Animali": true, "Parcheggio": true, "Internet": true, "Servizi benessere": false, "Servizi di ristorazione": false},
{"name": "Residence Lagorai", "type": "Residence", "address": "Via Arestiezza 5, 38038 Tesero, Italia", "lat": "46.29302976", "lon": "11.50800973", "checkin_from": "16:00", "checkin_to": "20:00", "checkout_from": null, "checkout_to": "09:30", "Animali": true, "Parcheggio": true, "Internet": true, "Servizi benessere": false, "Servizi di ristorazione": true},
{"name": "Maurerhof Telves", "type": "Residence", "address": "Telves, Telferweg 2, 39040 Racines, Italia", "lat": "46.89437403", "lon": "11.38002276", "checkin_from": "15:00", "checkin_to": "22:00", "checkout_from": "07:00", "checkout_to": "11:00", "Animali": true, "Parcheggio": true, "Internet": true, "Servizi benessere": false, "Servizi di ristorazione": false},
{"name": "Parkhotel Laurin", "type": "Hotel", "address": "Laurin 4, 39100 Bolzano, Italia", "lat": "46.49805437", "lon": "11.35710061", "checkin_from": "15:00", "checkin_to": null, "checkout_from": null, "checkout_to": "12:00", "Animali": true, "Parcheggio": true, "Internet": true, "Servizi benessere": false, "Servizi di ristorazione": true},
{"name": "Albergo Garn\u00ec Costa Verde", "type": "Hotel", "address": "Via Ferrazza, 66, 38080 Bocenago, Italia", "lat": "46.11826268", "lon": "10.75913370", "checkin_from": "14:00", "checkin_to": "22:00", "checkout_from": "07:30", "checkout_to": "11:00", "Animali": true, "Parcheggio": true, "Internet": true, "Servizi benessere": true, "Servizi di ristorazione": true},
{"name": "Aktiv Hotel Eden", "type": "Hotel", "address": "Viale Trento 2, 38074 Dro, Italia", "lat": "45.96970943", "lon": "10.91965377", "checkin_from": "15:00", "checkin_to": "23:00", "checkout_from": "07:30", "checkout_to": "10:00", "Animali": true, "Parcheggio": true, "Internet": true, "Servizi benessere": false, "Servizi di ristorazione": true},
{"name": "Residence Nives", "type": "Residence", "address": "Via Cesare Battisti 48, 39042 Bressanone, Italia", "lat": "46.72218461", "lon": "11.65833204", "checkin_from": "14:00", "checkin_to": "19:00", "checkout_from": "08:00", "checkout_to": "11:00", "Animali": true, "Parcheggio": true, "Internet": true, "Servizi benessere": false, "Servizi di ristorazione": false},
{"name": "Hotel Bonapace ***S", "type": "Hotel", "address": "Via Monte Spinale 18, 38086 Madonna di Campiglio, Italia", "lat": "46.22541391", "lon": "10.82677156", "checkin_from": "14:00", "checkin_to": "22:00", "checkout_from": "07:30", "checkout_to": "10:00", "Animali": false, "Parcheggio": true, "Internet": true, "Servizi benessere": false, "Servizi di ristorazione": true},
{"name": "Hotel Chalet Del Brenta", "type": "Hotel", "address": "Via Castelletto Inferiore 4, 38086 Madonna di Campiglio, Italia", "lat": "46.22425600", "lon": "10.82606614", "checkin_from": "14:30", "checkin_to": "00:00", "checkout_from": "01:00", "checkout_to": "10:30", "Animali": true, "Parcheggio": true, "Internet": true, "Servizi benessere": false, "Servizi di ristorazione": true},
{"name": "Casa Alla Grotta", "type": "Casa vacanze", "address": "Via Monte Brione, 16, 38062 Arco, Italia", "lat": "45.89352272", "lon": "10.86664579", "checkin_from": "16:00", "checkin_to": null, "checkout_from": null, "checkout_to": "10:00", "Animali": true, "Parcheggio": true, "Internet": true, "Servizi benessere": false, "Servizi di ristorazione": false},
{"name": "Hotel Sch\u00f6nbrunn", "type": "Hotel", "address": "J.-Mayr-Nusser-Str. 29 / Via J.-Mayr-Nusser 29, 39012 Merano, Italia", "lat": "46.66223709", "lon": "11.17542341", "checkin_from": "14:00", "checkin_to": "20:00", "checkout_from": "08:00", "checkout_to": "10:30", "Animali": true, "Parcheggio": true, "Internet": true, "Servizi benessere": false, "Servizi di ristorazione": true},
{"name": "Residence Monica", "type": "Residence", "address": "Via Longa 18, 38066 Riva del Garda, Italia", "lat": "45.88237753", "lon": "10.85876226", "checkin_from": "15:00", "checkin_to": "22:00", "checkout_from": "07:00", "checkout_to": "10:00", "Animali": true, "Parcheggio": true, "Internet": true, "Servizi benessere": false, "Servizi di ristorazione": true},
{"name": "Albert - Bon Di", "type": "Appartamenti", "address": "Via Dursan 82 15/16, 39047 Santa Cristina in Val Gardena, Italia", "lat": "46.55759153", "lon": "11.72582244", "checkin_from": "14:30", "checkin_to": "20:00", "checkout_from": "09:00", "checkout_to": "09:30", "Animali": false, "Parcheggio": true, "Internet": true, "Servizi benessere": false, "Servizi di ristorazione": true},
{"name": "Hotel Lago Di Garda", "type": "Hotel", "address": "Via Lungolago Conca d' Oro 11, 38069 Nago-Torbole, Italia", "lat": "45.86877723", "lon": "10.87644339", "checkin_from": "14:00", "checkin_to": "21:00", "checkout_from": "07:30", "checkout_to": "10:00", "Animali": false, "Parcheggio": true, "Internet": true, "Servizi benessere": true, "Servizi di ristorazione": true},
{"name": "Grand Hotel Riva", "type": "Hotel", "address": "Piazza Garibaldi 10, 38066 Riva del Garda, Italia", "lat": "45.88518756", "lon": "10.84230423", "checkin_from": "15:00", "checkin_to": "00:00", "checkout_from": "07:30", "checkout_to": "10:00", "Animali": true, "Parcheggio": true, "Internet": true, "Servizi benessere": true, "Servizi di ristorazione": true},
{"name": "Hotel Bavaria", "type": "Hotel", "address": "Viale Brenta Nr. 30, 38056 Levico Terme, Italia", "lat": "46.00733562", "lon": "11.29312992", "checkin_from": "15:00", "checkin_to": "19:00", "checkout_from": "08:00", "checkout_to": "10:00", "Animali": true, "Parcheggio": true, "Internet": true, "Servizi benessere": false, "Servizi di ristorazione": true},
{"name": "Hotel Holiday Sport & Relax", "type": "Hotel", "address": "Via Strada Granda, 62, 38069 Nago-Torbole, Italia", "lat": "45.87493447", "lon": "10.87700665", "checkin_from": "14:00", "checkin_to": "22:00", "checkout_from": "08:00", "checkout_to": "10:00", "Animali": true, "Parcheggio": true, "Internet": true, "Servizi benessere": false, "Servizi di ristorazione": true},
{"name": "Meran Apartment City Center", "type": "Appartamento", "address": "Corso della Libert\u00e0 62, 39012 Merano, Italia", "lat": "46.67058620", "lon": "11.16323564", "checkin_from": "15:00", "checkin_to": "18:30", "checkout_from": "07:00", "checkout_to": "11:00", "Animali": true, "Parcheggio": true, "Internet": true, "Servizi benessere": false, "Servizi di ristorazione": true},
{"name": "Cristal Palace Hotel", "type": "Hotel", "address": "Via Cima Tosa 104/A, 38084 Madonna di Campiglio, Italia", "lat": "46.23518100", "lon": "10.82686141", "checkin_from": "14:00", "checkin_to": null, "checkout_from": null, "checkout_to": "11:00", "Animali": true, "Parcheggio": true, "Internet": true, "Servizi benessere": false, "Servizi di ristorazione": true},
{"name": "Il Vigo di Marilleva", "type": "Residence", "address": "Localit\u00e0 Marilleva 1400 3, 38020 Marilleva, Italia", "lat": "46.30075388", "lon": "10.81346512", "checkin_from": "17:00", "checkin_to": "20:00", "checkout_from": "07:00", "checkout_to": "10:00", "Animali": false, "Parcheggio": true, "Internet": true, "Servizi benessere": false, "Servizi di ristorazione": true},
{"name": "Chalet Piz da Peres", "type": "Appartamenti", "address": "Furkelstra\u00dfe 4, 39030 Valdaora, Italia", "lat": "46.75242768", "lon": "12.01202528", "checkin_from": "15:00", "checkin_to": "21:00", "checkout_from": "07:00", "checkout_to": "10:00", "Animali": true, "Parcheggio": true, "Internet": true, "Servizi benessere": true, "Servizi di ristorazione": true},
{"name": "Avita - suites to relax", "type": "Appartamenti", "address": "Via Rezia 147, 39046 Ortisei, Italia", "lat": "46.57320241", "lon": "11.67546487", "checkin_from": "15:00", "checkin_to": "00:00", "checkout_from": "06:00", "checkout_to": "09:30", "Animali": false, "Parcheggio": true, "Internet": true, "Servizi benessere": false, "Servizi di ristorazione": true},
{"name": "Caravel Bike Hotel", "type": "Hotel", "address": "Via di Coize 9, 38069 Nago-Torbole, Italia", "lat": "45.87129101", "lon": "10.87689400", "checkin_from": "14:00", "checkin_to": "00:00", "checkout_from": null, "checkout_to": "11:00", "Animali": true, "Parcheggio": true, "Internet": true, "Servizi benessere": false, "Servizi di ristorazione": true},
{"name": "Appartements Mayrhof", "type": "Appartamenti", "address": "100 Elvaserstra\u00dfe, 39042 Bressanone, Italia", "lat": "46.72430490", "lon": "11.66365320", "checkin_from": "15:00", "checkin_to": "17:00", "checkout_from": "09:00", "checkout_to": "10:00", "Animali": false, "Parcheggio": true, "Internet": true, "Servizi benessere": false, "Servizi di ristorazione": false},
{"name": "Appartment Kircherhof", "type": "Appartamenti", "address": "Kircherhof 7, 39040 Laion, Italia", "lat": "46.60204794", "lon": "11.61017239", "checkin_from": "15:00", "checkin_to": "20:00", "checkout_from": "07:00", "checkout_to": "10:00", "Animali": true, "Parcheggio": true, "Internet": true, "Servizi benessere": false, "Servizi di ristorazione": false},
{"name": "Apartments Haus Martin", "type": "Appartamenti", "address": "Romstr. 07, 39056 Nova Levante, Italia", "lat": "46.43073036", "lon": "11.54182082", "checkin_from": "15:00", "checkin_to": "23:30", "checkout_from": "09:00", "checkout_to": "09:30", "Animali": true, "Parcheggio": true, "Internet": true, "Servizi benessere": true, "Servizi di ristorazione": true},
{"name": "Josef Mountain Resort", "type": "Hotel", "address": "Falzebener Stra\u00dfe 225, 39010 Avelengo, Italia", "lat": "46.66595855", "lon": "11.24236859", "checkin_from": "15:00", "checkin_to": "21:30", "checkout_from": "08:00", "checkout_to": "11:00", "Animali": true, "Parcheggio": true, "Internet": true, "Servizi benessere": false, "Servizi di ristorazione": true},
{"name": "Aparthotel Majestic", "type": "Residence", "address": "Via Fiamme Gialle 20/A, 38037 Predazzo, Italia", "lat": "46.30643879", "lon": "11.59815073", "checkin_from": "16:00", "checkin_to": "20:00", "checkout_from": null, "checkout_to": "09:30", "Animali": false, "Parcheggio": true, "Internet": true, "Servizi benessere": false, "Servizi di ristorazione": true},
{"name": "Residence La Colombera", "type": "Residence", "address": "Via Rovigo, 30, 38066 Riva del Garda, Italia", "lat": "45.88695753", "lon": "10.86111724", "checkin_from": "13:00", "checkin_to": "19:00", "checkout_from": "08:00", "checkout_to": "10:00", "Animali": true, "Parcheggio": true, "Internet": true, "Servizi benessere": true, "Servizi di ristorazione": true},
{"name": "Palazzo Lodron Bertelli. Dimora Storica & Spa", "type": "Hotel", "address": "Piazza S.Antonio, 38080 Caderzone, Italia", "lat": "46.13005094", "lon": "10.75692237", "checkin_from": "15:00", "checkin_to": "20:00", "checkout_from": "08:00", "checkout_to": "10:30", "Animali": false, "Parcheggio": true, "Internet": true, "Servizi benessere": true, "Servizi di ristorazione": true},
{"name": "Haus Holzner", "type": "Appartamenti", "address": "1a Weinreichgasse, 39010 Cermes, Italia", "lat": "46.63595000", "lon": "11.14531000", "checkin_from": "14:00", "checkin_to": "22:00", "checkout_from": "00:00", "checkout_to": "10:00", "Animali": false, "Parcheggio": true, "Internet": true, "Servizi benessere": false, "Servizi di ristorazione": false},
{"name": "Residence Magdalena", "type": "Residence", "address": "Strada Petlin 23, 39046 Ortisei, Italia", "lat": "46.57443000", "lon": "11.66863000", "checkin_from": "14:00", "checkin_to": "20:00", "checkout_from": null, "checkout_to": "09:30", "Animali": false, "Parcheggio": true, "Internet": true, "Servizi benessere": false, "Servizi di ristorazione": false},
{"name": "Sport Hotel Pampeago", "type": "Hotel", "address": "Localit\u00e0 Pampeago 8, 38030 Tesero, Italia", "lat": "46.34181352", "lon": "11.53968930", "checkin_from": "14:00", "checkin_to": "22:00", "checkout_from": "08:00", "checkout_to": "10:00", "Animali": true, "Parcheggio": true, "Internet": true, "Servizi benessere": false, "Servizi di ristorazione": true},
{"name": "Riva Lago e Spiaggia Apartment 2", "type": "Appartamento", "address": "6 Via Franz Kafka, 38066 Riva del Garda, Italia", "lat": "45.88028290", "lon": "10.85387180", "checkin_from": "16:00", "checkin_to": null, "checkout_from": null, "checkout_to": "10:00", "Animali": true, "Parcheggio": true, "Internet": true, "Servizi benessere": false, "Servizi di ristorazione": false},
{"name": "Grand Hotel Bellevue", "type": "Hotel", "address": "Corso Libert\u00e0 - Freiheitsstrasse 194, 39012 Merano, Italia", "lat": "46.67138654", "lon": "11.15317225", "checkin_from": "14:00", "checkin_to": "22:00", "checkout_from": "07:30", "checkout_to": "11:00", "Animali": false, "Parcheggio": true, "Internet": true, "Servizi benessere": false, "Servizi di ristorazione": true},
{"name": "Residence Auriga", "type": "Residence", "address": "Bayergasse 18, 39032 Campo Tures, Italia", "lat": "46.92095553", "lon": "11.95192523", "checkin_from": "14:00", "checkin_to": "23:00", "checkout_from": "08:00", "checkout_to": "10:00", "Animali": true, "Parcheggio": true, "Internet": true, "Servizi benessere": true, "Servizi di ristorazione": false},
{"name": "Hotel Mondschein", "type": "Hotel", "address": "Via Frundsberg 12, 39049 Vipiteno, Italia", "lat": "46.89807998", "lon": "11.43058777", "checkin_from": "14:00", "checkin_to": "00:00", "checkout_from": "06:30", "checkout_to": "11:00", "Animali": true, "Parcheggio": true, "Internet": true, "Servizi benessere": true, "Servizi di ristorazione": true},
{"name": "Almhotel Lenz", "type": "Hotel", "address": "Hinterberg 3, 39030 Valdaora, Italia", "lat": "46.74069233", "lon": "12.00264458", "checkin_from": "13:00", "checkin_to": "22:00", "checkout_from": "07:30", "checkout_to": "10:00", "Animali": false, "Parcheggio": true, "Internet": true, "Servizi benessere": true, "Servizi di ristorazione": true},
{"name": "Il Vigo di Marilleva", "type": "Residence", "address": "Localit\u00e0 Marilleva 1400 3, 38020 Marilleva, Italia", "lat": "46.30075388", "lon": "10.81346512", "checkin_from": "17:00", "checkin_to": "20:00", "checkout_from": "07:00", "checkout_to": "10:00", "Animali": false, "Parcheggio": true, "Internet": true, "Servizi benessere": false, "Servizi di ristorazione": true},
{"name": "Apartment Fewo", "type": "Appartamenti", "address": "Piazza Giuseppe Verdi 28, 39100 Bolzano, Italia", "lat": "46.49535895", "lon": "11.35265539", "checkin_from": "14:00", "checkin_to": "21:00", "checkout_from": null, "checkout_to": "10:30", "Animali": true, "Parcheggio": true, "Internet": true, "Servizi benessere": false, "Servizi di ristorazione": false},
{"name": "Residence Antares", "type": "Residence", "address": "Via Meisules 195, 39048 Selva di Val Gardena, Italia", "lat": "46.55418293", "lon": "11.75904036", "checkin_from": "17:00", "checkin_to": null, "checkout_from": null, "checkout_to": "10:00", "Animali": false, "Parcheggio": true, "Internet": true, "Servizi benessere": false, "Servizi di ristorazione": true},
{"name": "Family Residence Village alle Terrazze 1 - Ideale per famiglie", "type": "Appartamenti", "address": "Via Roccolo 1, 38067 Pieve di Ledro, Italia", "lat": "45.87102158", "lon": "10.74222833", "checkin_from": "16:00", "checkin_to": "18:30", "checkout_from": "09:00", "checkout_to": "09:30", "Animali": false, "Parcheggio": true, "Internet": true, "Servizi benessere": false, "Servizi di ristorazione": false},
{"name": "Hotel Ideal Park", "type": "Hotel", "address": "Kennedystra\u00dfe 233, 39055 Laives, Italia", "lat": "46.42390693", "lon": "11.33403361", "checkin_from": "14:00", "checkin_to": null, "checkout_from": "06:00", "checkout_to": "10:00", "Animali": true, "Parcheggio": true, "Internet": true, "Servizi benessere": false, "Servizi di ristorazione": true},
{"name": "Hotel Garni Snaltnerhof", "type": "Hotel", "address": "Via Rezia 142, 39046 Ortisei, Italia", "lat": "46.57317396", "lon": "11.67394727", "checkin_from": "14:30", "checkin_to": "22:30", "checkout_from": "09:30", "checkout_to": "10:00", "Animali": true, "Parcheggio": true, "Internet": true, "Servizi benessere": false, "Servizi di ristorazione": true},
{"name": "Casa Tosca", "type": "Appartamenti", "address": "Via Don Davide Gioppi 40, 38069 Nago-Torbole, Italia", "lat": "45.87013771", "lon": "10.87665573", "checkin_from": "15:00", "checkin_to": "18:00", "checkout_from": "07:00", "checkout_to": "10:00", "Animali": false, "Parcheggio": true, "Internet": true, "Servizi benessere": false, "Servizi di ristorazione": false},
{"name": "Hotel America", "type": "Hotel", "address": "Via Torre Verde 50, 38122 Trento, Italia", "lat": "46.07115399", "lon": "11.12405956", "checkin_from": "15:00", "checkin_to": null, "checkout_from": null, "checkout_to": "10:00", "Animali": true, "Parcheggio": true, "Internet": true, "Servizi benessere": true, "Servizi di ristorazione": true},
{"name": "Exclusive Suites Riva", "type": "Appartamenti", "address": "Via Monte Oro, 38066 Riva del Garda, Italia", "lat": "45.88383710", "lon": "10.83850904", "checkin_from": "14:00", "checkin_to": "20:00", "checkout_from": "07:30", "checkout_to": "11:00", "Animali": false, "Parcheggio": true, "Internet": true, "Servizi benessere": false, "Servizi di ristorazione": false},
{"name": "Garni Hotel Mirabel", "type": "Hotel", "address": "Via J. Skasa 5, 39046 Ortisei, Italia", "lat": "46.56479350", "lon": "11.69553530", "checkin_from": "13:00", "checkin_to": "20:00", "checkout_from": "07:30", "checkout_to": "10:00", "Animali": false, "Parcheggio": true, "Internet": true, "Servizi benessere": true, "Servizi di ristorazione": true},
{"name": "Apartments Edera", "type": "Appartamenti", "address": "18 Strada Ruacia, 39048 Selva di Val Gardena, Italia", "lat": "46.55732647", "lon": "11.72905249", "checkin_from": "14:00", "checkin_to": null, "checkout_from": null, "checkout_to": "10:00", "Animali": false, "Parcheggio": true, "Internet": true, "Servizi benessere": true, "Servizi di ristorazione": false},
{"name": "Apt Bel Pre", "type": "Appartamenti", "address": "Via Colz, 91, 39036 La Villa, Italia", "lat": "46.58283275", "lon": "11.90450554", "checkin_from": "14:00", "checkin_to": "20:00", "checkout_from": null, "checkout_to": "10:00", "Animali": false, "Parcheggio": true, "Internet": true, "Servizi benessere": false, "Servizi di ristorazione": false},
{"name": "Residence Rottonara", "type": "Residence", "address": "Strada Col Alt 102, 39033 Corvara in Badia, Italia", "lat": "46.54661270", "lon": "11.87609196", "checkin_from": "11:00", "checkin_to": "20:00", "checkout_from": "07:00", "checkout_to": "10:00", "Animali": false, "Parcheggio": true, "Internet": true, "Servizi benessere": false, "Servizi di ristorazione": false},
{"name": "Hotel Mondschein", "type": "Hotel", "address": "Via Frundsberg 12, 39049 Vipiteno, Italia", "lat": "46.89807998", "lon": "11.43058777", "checkin_from": "14:00", "checkin_to": "00:00", "checkout_from": "06:30", "checkout_to": "11:00", "Animali": true, "Parcheggio": true, "Internet": true, "Servizi benessere": true, "Servizi di ristorazione": true},
{"name": "Grand Hotel Riva", "type": "Hotel", "address": "Piazza Garibaldi 10, 38066 Riva del Garda, Italia", "lat": "45.88518756", "lon": "10.84230423", "checkin_from": "15:00", "checkin_to": "00:00", "checkout_from": "07:30", "checkout_to": "10:00", "Animali": true, "Parcheggio": true, "Internet": true, "Servizi benessere": true, "Servizi di ristorazione": true},
{"name": "Hotel Holiday Sport & Relax", "type": "Hotel", "address": "Via Strada Granda, 62, 38069 Nago-Torbole, Italia", "lat": "45.87493447", "lon": "10.87700665", "checkin_from": "14:00", "checkin_to": "22:00", "checkout_from": "08:00", "checkout_to": "10:00", "Animali": true, "Parcheggio": true, "Internet": true, "Servizi benessere": false, "Servizi di ristorazione": true},
{"name": "Hotel Lago Di Garda", "type": "Hotel", "address": "Via Lungolago Conca d' Oro 11, 38069 Nago-Torbole, Italia", "lat": "45.86877723", "lon": "10.87644339", "checkin_from": "14:00", "checkin_to": "21:00", "checkout_from": "07:30", "checkout_to": "10:00", "Animali": false, "Parcheggio": true, "Internet": true, "Servizi benessere": true, "Servizi di ristorazione": true},
{"name": "Almhotel Lenz", "type": "Hotel", "address": "Hinterberg 3, 39030 Valdaora, Italia", "lat": "46.74069233", "lon": "12.00264458", "checkin_from": "13:00", "checkin_to": "22:00", "checkout_from": "07:30", "checkout_to": "10:00", "Animali": false, "Parcheggio": true, "Internet": true, "Servizi benessere": true, "Servizi di ristorazione": true},
{"name": "Hotel Bavaria", "type": "Hotel", "address": "Viale Brenta Nr. 30, 38056 Levico Terme, Italia", "lat": "46.00733562", "lon": "11.29312992", "checkin_from": "15:00", "checkin_to": "19:00", "checkout_from": "08:00", "checkout_to": "10:00", "Animali": true, "Parcheggio": true, "Internet": true, "Servizi benessere": false, "Servizi di ristorazione": true},
{"name": "Meran Apartment City Center", "type": "Appartamento", "address": "Corso della Libert\u00e0 62, 39012 Merano, Italia", "lat": "46.67058620", "lon": "11.16323564", "checkin_from": "15:00", "checkin_to": "18:30", "checkout_from": "07:00", "checkout_to": "11:00", "Animali": true, "Parcheggio": true, "Internet": true, "Servizi benessere": false, "Servizi di ristorazione": true},
{"name": "Riva Lago e Spiaggia Apartment 2", "type": "Appartamento", "address": "6 Via Franz Kafka, 38066 Riva del Garda, Italia", "lat": "45.88028290", "lon": "10.85387180", "checkin_from": "16:00", "checkin_to": null, "checkout_from": null, "checkout_to": "10:00", "Animali": true, "Parcheggio": true, "Internet": true, "Servizi benessere": false, "Servizi di ristorazione": false},
{"name": "Chalet Piz da Peres", "type": "Appartamenti", "address": "Furkelstra\u00dfe 4, 39030 Valdaora, Italia", "lat": "46.75242768", "lon": "12.01202528", "checkin_from": "15:00", "checkin_to": "21:00", "checkout_from": "07:00", "checkout_to": "10:00", "Animali": true, "Parcheggio": true, "Internet": true, "Servizi benessere": true, "Servizi di ristorazione": true},
{"name": "Bognerhof", "type": "Appartamenti", "address": "Kirchweg 59, 39010 Rifiano, Italia", "lat": "46.70882200", "lon": "11.18350600", "checkin_from": "15:00", "checkin_to": "20:00", "checkout_from": "00:30", "checkout_to": "10:00", "Animali": false, "Parcheggio": true, "Internet": true, "Servizi benessere": false, "Servizi di ristorazione": false},
{"name": "Apartments Salieta", "type": "Appartamenti", "address": "Plesdinaz 49, 39047 Santa Cristina in Val Gardena, Italia", "lat": "46.56202247", "lon": "11.72555780", "checkin_from": "15:00", "checkin_to": "22:00", "checkout_from": null, "checkout_to": "09:30", "Animali": false, "Parcheggio": true, "Internet": true, "Servizi benessere": true, "Servizi di ristorazione": true},
{"name": "Hotel Montana", "type": "Hotel", "address": "Via Cima Tosa 95, 38086 Madonna di Campiglio, Italia", "lat": "46.23353534", "lon": "10.82357168", "checkin_from": "14:00", "checkin_to": "00:00", "checkout_from": "06:30", "checkout_to": "11:00", "Animali": true, "Parcheggio": true, "Internet": true, "Servizi benessere": true, "Servizi di ristorazione": true},
{"name": "Hotel Garni Hochgruber", "type": "Hotel", "address": "Seilbahnstra\u00dfe 5 , Riscone, 39031 Brunico, Italia", "lat": "46.77151125", "lon": "11.94409310", "checkin_from": "14:00", "checkin_to": "21:00", "checkout_from": "07:00", "checkout_to": "10:00", "Animali": false, "Parcheggio": true, "Internet": true, "Servizi benessere": false, "Servizi di ristorazione": true},
{"name": "LMC Guesthouse", "type": "Bed & breakfast", "address": "Loc. Val Molini, Bezzecca, 38067 Ledro, Italia", "lat": "45.89993200", "lon": "10.70521500", "checkin_from": "14:00", "checkin_to": "20:00", "checkout_from": "06:00", "checkout_to": "09:00", "Animali": true, "Parcheggio": true, "Internet": true, "Servizi benessere": false, "Servizi di ristorazione": true},
{"name": "Le rose di Marianne - sud", "type": "Appartamento", "address": "39 St.-Elisabeth-Weg, 39040 Varna, Italia", "lat": "46.72910286", "lon": "11.64882266", "checkin_from": "14:00", "checkin_to": "22:00", "checkout_from": "06:00", "checkout_to": "10:00", "Animali": true, "Parcheggio": true, "Internet": true, "Servizi benessere": false, "Servizi di ristorazione": true},
{"name": "Schloss Paschbach", "type": "Bed & breakfast", "address": "Via Monte 33, 39057 Appiano sulla Strada del Vino, Italia", "lat": "46.46081683", "lon": "11.25257492", "checkin_from": "14:00", "checkin_to": "19:00", "checkout_from": "08:00", "checkout_to": "10:30", "Animali": false, "Parcheggio": true, "Internet": true, "Servizi benessere": true, "Servizi di ristorazione": true},
{"name": "Tratterhof Apartments", "type": "Appartamenti", "address": "Kegelbergstra\u00dfe 7, 39030 Vallarga, Italia", "lat": "46.84644655", "lon": "11.71738637", "checkin_from": "14:00", "checkin_to": "20:00", "checkout_from": "07:30", "checkout_to": "10:00", "Animali": false, "Parcheggio": true, "Internet": true, "Servizi benessere": true, "Servizi di ristorazione": false},
{"name": "Apartment Madonna di Campiglio", "type": "Appartamento", "address": "Via Zeledria 20/24, 38086 Madonna di Campiglio, Italia", "lat": "46.24401600", "lon": "10.83717800", "checkin_from": "15:00", "checkin_to": "19:00", "checkout_from": "08:00", "checkout_to": "10:30", "Animali": true, "Parcheggio": true, "Internet": true, "Servizi benessere": true, "Servizi di ristorazione": true},
{"name": "Life Studio & City Bike", "type": "Appartamento", "address": "Via dei Conciapelli 36, 39100 Bolzano, Italia", "lat": "46.49913510", "lon": "11.35809180", "checkin_from": "14:30", "checkin_to": "22:00", "checkout_from": "07:00", "checkout_to": "11:30", "Animali": true, "Parcheggio": true, "Internet": true, "Servizi benessere": false, "Servizi di ristorazione": true},
{"name": "Naturhotel L\u00fcsnerhof", "type": "Hotel", "address": "Runggerstra\u00dfe, 20, 39042 Luson, Italia", "lat": "46.74622265", "lon": "11.77475998", "checkin_from": "14:00", "checkin_to": "22:00", "checkout_from": "08:00", "checkout_to": "11:00", "Animali": true, "Parcheggio": true, "Internet": true, "Servizi benessere": false, "Servizi di ristorazione": true},
{"name": "Sonnenresidence Alpenhof", "type": "Appartamenti", "address": "Oswald von Wolkenstein Stra\u00dfe 18, 39040 Termeno, Italia", "lat": "46.34203600", "lon": "11.24330000", "checkin_from": "14:00", "checkin_to": "20:00", "checkout_from": null, "checkout_to": "10:00", "Animali": false, "Parcheggio": true, "Internet": true, "Servizi benessere": false, "Servizi di ristorazione": true},
{"name": "Hotel Everest", "type": "Hotel", "address": "Corso Degli Alpini 14, 38121 Trento, Italia", "lat": "46.07847025", "lon": "11.11851007", "checkin_from": "14:00", "checkin_to": "00:00", "checkout_from": "06:00", "checkout_to": "11:00", "Animali": true, "Parcheggio": true, "Internet": true, "Servizi benessere": false, "Servizi di ristorazione": true},
{"name": "Residence Fink Central Apartments", "type": "Appartamenti", "address": "Mustergasse 9 , 39100 Bolzano, Italia", "lat": "46.49850784", "lon": "11.35280585", "checkin_from": "15:00", "checkin_to": "00:00", "checkout_from": "06:00", "checkout_to": "10:30", "Animali": true, "Parcheggio": true, "Internet": true, "Servizi benessere": false, "Servizi di ristorazione": false},
{"name": "Villa Italia", "type": "Residence", "address": "Viale Magnolie 29, 38062 Arco, Italia", "lat": "45.91875120", "lon": "10.88418840", "checkin_from": "14:00", "checkin_to": "21:00", "checkout_from": "07:00", "checkout_to": "10:00", "Animali": false, "Parcheggio": true, "Internet": true, "Servizi benessere": false, "Servizi di ristorazione": true},
{"name": "Caravan Park Sexten", "type": "Campeggio", "address": "Via San. Giovanni,54 , 39030 Sesto, Italia", "lat": "46.66825762", "lon": "12.39963770", "checkin_from": "15:00", "checkin_to": "21:00", "checkout_from": "08:00", "checkout_to": "10:00", "Animali": true, "Parcheggio": true, "Internet": true, "Servizi benessere": false, "Servizi di ristorazione": true},
{"name": "Hotel Scherlin", "type": "Hotel", "address": "Via Pinei 42, 39046 Ortisei, Italia", "lat": "46.57715279", "lon": "11.62499428", "checkin_from": "15:00", "checkin_to": "18:00", "checkout_from": "07:30", "checkout_to": "10:00", "Animali": true, "Parcheggio": true, "Internet": true, "Servizi benessere": false, "Servizi di ristorazione": true},
{"name": "Casa Gruenheim", "type": "Appartamento", "address": "Via San Giacomo 17a, 39055 Laives, Italia", "lat": "46.46232656", "lon": "11.33394040", "checkin_from": "14:00", "checkin_to": "20:00", "checkout_from": null, "checkout_to": "10:00", "Animali": true, "Parcheggio": true, "Internet": true, "Servizi benessere": false, "Servizi di ristorazione": true},
{"name": "Villa Hubertus", "type": "Residence", "address": "Via Stufan 21, 39046  Ortisei, Italia", "lat": "46.57503619", "lon": "11.67434156", "checkin_from": "14:00", "checkin_to": "00:00", "checkout_from": "06:00", "checkout_to": "09:00", "Animali": false, "Parcheggio": true, "Internet": true, "Servizi benessere": true, "Servizi di ristorazione": false},
{"name": "Grand Hotel Trento", "type": "Hotel", "address": "Piazza Dante 20, 38100 Trento, Italia", "lat": "46.07094371", "lon": "11.12162948", "checkin_from": "14:00", "checkin_to": null, "checkout_from": null, "checkout_to": "12:00", "Animali": true, "Parcheggio": true, "Internet": true, "Servizi benessere": true, "Servizi di ristorazione": true},
{"name": "Casa Baldelli", "type": "Hotel", "address": "Valle San Silvestro, 3, 39034 Dobbiaco, Italia", "lat": "46.74594300", "lon": "12.23368500", "checkin_from": "15:00", "checkin_to": "23:00", "checkout_from": "08:00", "checkout_to": "11:00", "Animali": false, "Parcheggio": true, "Internet": true, "Servizi benessere": false, "Servizi di ristorazione": true},
{"name": "Hotel Alpina", "type": "Hotel", "address": "Via Degli Sfulmini 5, 38086 Madonna di Campiglio, Italia", "lat": "46.23265219", "lon": "10.82561553", "checkin_from": "15:00", "checkin_to": "23:00", "checkout_from": "08:00", "checkout_to": "10:00", "Animali": false, "Parcheggio": true, "Internet": true, "Servizi benessere": true, "Servizi di ristorazione": true},
{"name": "Art & Design Hotel Napura", "type": "Hotel", "address": "Steurer Stra\u00dfe 7 - Fraz. Settequerce , 39018 Bolzano, Italia", "lat": "46.50644551", "lon": "11.27776891", "checkin_from": "15:00", "checkin_to": "21:30", "checkout_from": "07:30", "checkout_to": "11:00", "Animali": true, "Parcheggio": true, "Internet": true, "Servizi benessere": true, "Servizi di ristorazione": true},
{"name": "Hotel Residence Torbole", "type": "Residence", "address": "via Lungolago Conca d'Oro, 49, 38069 Nago-Torbole, Italia", "lat": "45.86426858", "lon": "10.87542415", "checkin_from": "15:00", "checkin_to": "21:00", "checkout_from": "08:00", "checkout_to": "10:00", "Animali": true, "Parcheggio": true, "Internet": true, "Servizi benessere": true, "Servizi di ristorazione": true},
{"name": "Pension Haus Tirol", "type": "Hotel", "address": "Tsch\u00f6vas 6b, 39040 Laion, Italia", "lat": "46.60947777", "lon": "11.57931089", "checkin_from": "13:00", "checkin_to": "21:00", "checkout_from": "07:30", "checkout_to": "10:00", "Animali": false, "Parcheggio": true, "Internet": true, "Servizi benessere": false, "Servizi di ristorazione": true},
{"name": "Hotel Cristiania", "type": "Hotel", "address": "Via Pradalago 24, 38086 Madonna di Campiglio, Italia", "lat": "46.23321065", "lon": "10.82696870", "checkin_from": "14:00", "checkin_to": "23:00", "checkout_from": "08:00", "checkout_to": "10:00", "Animali": false, "Parcheggio": true, "Internet": true, "Servizi benessere": true, "Servizi di ristorazione": true},
{"name": "Komodo Apartments", "type": "Residence", "address": "Piazza delle Donne Lavoratrici 13, 38121 Trento, Italia", "lat": "46.06025286", "lon": "11.11516669", "checkin_from": "14:30", "checkin_to": "21:00", "checkout_from": null, "checkout_to": "10:30", "Animali": true, "Parcheggio": true, "Internet": true, "Servizi benessere": false, "Servizi di ristorazione": true},
{"name": "Residence Villa Nicole", "type": "Appartamenti", "address": "Via Fossa Grande 8 , 38062 Arco, Italia", "lat": "45.92044367", "lon": "10.88354453", "checkin_from": "15:00", "checkin_to": "23:00", "checkout_from": "08:00", "checkout_to": "10:00", "Animali": true, "Parcheggio": true, "Internet": true, "Servizi benessere": false, "Servizi di ristorazione": false},
{"name": "Hotel Belvedere", "type": "Hotel", "address": "Via Pichl, 15, 39050 San Genesio Atesino, Italia", "lat": "46.53171570", "lon": "11.33905130", "checkin_from": "15:00", "checkin_to": "20:00", "checkout_from": "07:30", "checkout_to": "11:00", "Animali": true, "Parcheggio": true, "Internet": true, "Servizi benessere": false, "Servizi di ristorazione": true},
{"name": "Apartments Mezdi", "type": "Appartamenti", "address": "Via Val 10, 39047 Santa Cristina in Val Gardena, Italia", "lat": "46.55890088", "lon": "11.72106564", "checkin_from": "14:00", "checkin_to": "20:30", "checkout_from": null, "checkout_to": "09:00", "Animali": false, "Parcheggio": true, "Internet": true, "Servizi benessere": false, "Servizi di ristorazione": false},
{"name": "Hotel Monika", "type": "Hotel", "address": "Parkweg 2, 39030 Sesto, Italia", "lat": "46.69380633", "lon": "12.35773891", "checkin_from": "15:00", "checkin_to": "22:00", "checkout_from": "07:30", "checkout_to": "10:30", "Animali": false, "Parcheggio": true, "Internet": true, "Servizi benessere": false, "Servizi di ristorazione": true},
{"name": "Apartments Victoria", "type": "Appartamento", "address": "Via Doss 8, 39046 Ortisei, Italia", "lat": "46.57845105", "lon": "11.67289435", "checkin_from": "14:00", "checkin_to": null, "checkout_from": null, "checkout_to": "09:00", "Animali": true, "Parcheggio": true, "Internet": true, "Servizi benessere": true, "Servizi di ristorazione": false},
{"name": "Hotel Bristol", "type": "Hotel", "address": "Viale Trento 71, 38066 Riva del Garda, Italia", "lat": "45.89595211", "lon": "10.85047960", "checkin_from": "14:30", "checkin_to": "22:00", "checkout_from": "07:30", "checkout_to": "10:00", "Animali": true, "Parcheggio": true, "Internet": true, "Servizi benessere": false, "Servizi di ristorazione": true},
{"name": "Design Oberosler Hotel", "type": "Hotel", "address": "Via Monte Spinale 27, 38084 Madonna di Campiglio, Italia", "lat": "46.22916213", "lon": "10.82877517", "checkin_from": "15:00", "checkin_to": "22:00", "checkout_from": "08:30", "checkout_to": "10:00", "Animali": true, "Parcheggio": true, "Internet": true, "Servizi benessere": true, "Servizi di ristorazione": true},
{"name": "Residenza Rocca del Lago", "type": "Appartamento", "address": "5 Via Giuseppe Mazzini, 38066 Riva del Garda, Italia", "lat": "45.88531600", "lon": "10.84172800", "checkin_from": "16:00", "checkin_to": "00:00", "checkout_from": null, "checkout_to": "10:00", "Animali": false, "Parcheggio": false, "Internet": false, "Servizi benessere": false, "Servizi di ristorazione": false},
{"name": "Naturhotel Die Waldruhe", "type": "Hotel", "address": "Kofelweg 2, 39030 Chienes, Italia", "lat": "46.82208809", "lon": "11.83871269", "checkin_from": "15:00", "checkin_to": "20:00", "checkout_from": "07:30", "checkout_to": "10:00", "Animali": true, "Parcheggio": true, "Internet": true, "Servizi benessere": false, "Servizi di ristorazione": true},
{"name": "Appartamenti Stefan", "type": "Appartamenti", "address": "88 Streda Dolomites Campitello di Fassa, 38031 Campitello di Fassa, Italia", "lat": "46.47649160", "lon": "11.74393872", "checkin_from": "15:00", "checkin_to": "19:00", "checkout_from": "00:00", "checkout_to": "09:00", "Animali": true, "Parcheggio": true, "Internet": true, "Servizi benessere": false, "Servizi di ristorazione": false},
{"name": "Hotel Spinale", "type": "Hotel", "address": "Via Monte Spinale 39, 38086 Madonna di Campiglio, Italia", "lat": "46.22825850", "lon": "10.82884490", "checkin_from": "14:00", "checkin_to": "00:00", "checkout_from": "07:30", "checkout_to": "10:00", "Animali": true, "Parcheggio": true, "Internet": true, "Servizi benessere": false, "Servizi di ristorazione": true},
{"name": "H\u00f6lzlhof Apartments", "type": "Appartamenti", "address": "Biotopstrasse 3, 39030 Rasun di Sopra, Italia", "lat": "46.79074361", "lon": "12.05896185", "checkin_from": "16:00", "checkin_to": null, "checkout_from": null, "checkout_to": "10:00", "Animali": false, "Parcheggio": true, "Internet": true, "Servizi benessere": true, "Servizi di ristorazione": false},
{"name": "Park Hotel Bellevue", "type": "Hotel", "address": "Via Campo Carlo Magno 3 Fraz. Carciato, 38025 Dimaro, Italia", "lat": "46.32456282", "lon": "10.88358074", "checkin_from": "14:00", "checkin_to": "20:30", "checkout_from": "07:30", "checkout_to": "10:00", "Animali": true, "Parcheggio": true, "Internet": true, "Servizi benessere": true, "Servizi di ristorazione": true},
{"name": "Marerhof", "type": "Appartamenti", "address": "Ratsberg 5 Marerhof, 39034 Dobbiaco, Italia", "lat": "46.74724425", "lon": "12.21675483", "checkin_from": "14:00", "checkin_to": "22:00", "checkout_from": "06:00", "checkout_to": "09:30", "Animali": true, "Parcheggio": true, "Internet": true, "Servizi benessere": false, "Servizi di ristorazione": false},
{"name": "Aparthotel Abin\u00e1 Lana H\u00f6he", "type": "Residence", "address": "20 Via Ultimo, 39011 Lana, Italia", "lat": "46.61254500", "lon": "11.12666400", "checkin_from": "14:00", "checkin_to": "22:00", "checkout_from": "06:30", "checkout_to": "10:00", "Animali": false, "Parcheggio": true, "Internet": true, "Servizi benessere": false, "Servizi di ristorazione": true},
{"name": "Dog Friendly Village alle Terrazze 86", "type": "Appartamenti", "address": "Via Valmaria 86, 38067 Pieve di Ledro, Italia", "lat": "45.87096555", "lon": "10.74245632", "checkin_from": "16:00", "checkin_to": "18:30", "checkout_from": "09:00", "checkout_to": "09:30", "Animali": true, "Parcheggio": true, "Internet": true, "Servizi benessere": false, "Servizi di ristorazione": false},
{"name": "Astoria Park Hotel Spa Resort", "type": "Hotel", "address": "Viale Trento 9, 38066 Riva del Garda, Italia", "lat": "45.89271139", "lon": "10.84727705", "checkin_from": "14:30", "checkin_to": null, "checkout_from": null, "checkout_to": "11:00", "Animali": true, "Parcheggio": true, "Internet": true, "Servizi benessere": false, "Servizi di ristorazione": true},
{"name": "Fior Apartments Schiller", "type": "Residence", "address": "7 Via Schiller, 39012 Merano, Italia", "lat": "46.66799800", "lon": "11.15807200", "checkin_from": "15:00", "checkin_to": "19:00", "checkout_from": null, "checkout_to": "10:00", "Animali": false, "Parcheggio": true, "Internet": true, "Servizi benessere": false, "Servizi di ristorazione": false},
{"name": "Festnerhof", "type": "Appartamenti", "address": "Schintlholz 12a, 39030 Valle Di Casies, Italia", "lat": "46.77700447", "lon": "12.15714356", "checkin_from": "13:00", "checkin_to": "19:00", "checkout_from": "06:30", "checkout_to": "09:00", "Animali": false, "Parcheggio": true, "Internet": true, "Servizi benessere": true, "Servizi di ristorazione": false},
{"name": "Seehotel Panorama Relax", "type": "Hotel", "address": "Hauptstr. 19, 39027 Resia, Italia", "lat": "46.82852059", "lon": "10.51863939", "checkin_from": "14:00", "checkin_to": "19:00", "checkout_from": null, "checkout_to": "10:00", "Animali": true, "Parcheggio": true, "Internet": true, "Servizi benessere": false, "Servizi di ristorazione": true},
{"name": "Villa Martha - Adults Only Hotel", "type": "Hotel", "address": "Str. Cisles145, 39047 Santa Cristina in Val Gardena, Italia", "lat": "46.56238651", "lon": "11.73238993", "checkin_from": "13:00", "checkin_to": "21:00", "checkout_from": null, "checkout_to": "10:30", "Animali": false, "Parcheggio": true, "Internet": true, "Servizi benessere": false, "Servizi di ristorazione": true},
{"name": "B612", "type": "Hotel", "address": "Traversa Lido 4, 38056 Levico Terme, Italia", "lat": "46.00837515", "lon": "11.29177809", "checkin_from": "15:00", "checkin_to": "22:00", "checkout_from": "07:00", "checkout_to": "11:00", "Animali": true, "Parcheggio": true, "Internet": true, "Servizi benessere": false, "Servizi di ristorazione": true},
{"name": "Appartamenti Ladina", "type": "Appartamenti", "address": "Streda Dolomites 88 , 38031 Campitello di Fassa, Italia", "lat": "46.47630340", "lon": "11.74404681", "checkin_from": "16:00", "checkin_to": "19:00", "checkout_from": "06:00", "checkout_to": "10:00", "Animali": true, "Parcheggio": true, "Internet": true, "Servizi benessere": false, "Servizi di ristorazione": false},
{"name": "Apartments N\u00b07", "type": "Appartamenti", "address": "Strada Minert, 7, 39046 Ortisei, Italia", "lat": "46.56959030", "lon": "11.67996484", "checkin_from": "16:00", "checkin_to": "19:00", "checkout_from": "08:00", "checkout_to": "09:00", "Animali": false, "Parcheggio": true, "Internet": true, "Servizi benessere": false, "Servizi di ristorazione": false},
{"name": "Residenzhotel Hirben", "type": "Residence", "address": "Rienzstr. 5, 39039 Villabassa, Italia", "lat": "46.73900034", "lon": "12.16549158", "checkin_from": "14:00", "checkin_to": "19:00", "checkout_from": "08:00", "checkout_to": "10:00", "Animali": true, "Parcheggio": true, "Internet": true, "Servizi benessere": false, "Servizi di ristorazione": true},
{"name": "Pace 1954 Hotel", "type": "Hotel", "address": "Via Vergolano 42, 38062 Arco, Italia", "lat": "45.91980180", "lon": "10.88363573", "checkin_from": "14:00", "checkin_to": "23:30", "checkout_from": "07:30", "checkout_to": "10:30", "Animali": true, "Parcheggio": true, "Internet": true, "Servizi benessere": false, "Servizi di ristorazione": true},
{"name": "City Charme Apartments", "type": "Appartamenti", "address": "Wangergasse 29, 39100 Bolzano, Italia", "lat": "46.50087120", "lon": "11.35279220", "checkin_from": "16:00", "checkin_to": "21:00", "checkout_from": "05:00", "checkout_to": "10:00", "Animali": false, "Parcheggio": true, "Internet": true, "Servizi benessere": false, "Servizi di ristorazione": false},
{"name": "Design Oberosler Hotel", "type": "Hotel", "address": "Via Monte Spinale 27, 38084 Madonna di Campiglio, Italia", "lat": "46.22916213", "lon": "10.82877517", "checkin_from": "15:00", "checkin_to": "22:00", "checkout_from": "08:30", "checkout_to": "10:00", "Animali": true, "Parcheggio": true, "Internet": true, "Servizi benessere": true, "Servizi di ristorazione": true},
{"name": "Apartment Peskoller", "type": "Appartamento", "address": "10 Via Hasenried, 39030 Issengo, Italia", "lat": "46.81814070", "lon": "11.85854050", "checkin_from": "15:00", "checkin_to": "21:00", "checkout_from": "08:00", "checkout_to": "10:00", "Animali": true, "Parcheggio": true, "Internet": true, "Servizi benessere": false, "Servizi di ristorazione": true},
{"name": "Hotel Gr\u00fcner Baum", "type": "Hotel", "address": "Stuflergasse 11, 39042 Bressanone, Italia", "lat": "46.71704066", "lon": "11.65935874", "checkin_from": "14:00", "checkin_to": "00:00", "checkout_from": "07:00", "checkout_to": "11:00", "Animali": true, "Parcheggio": true, "Internet": true, "Servizi benessere": false, "Servizi di ristorazione": true},
{"name": "Parc Hotel Flora", "type": "Hotel", "address": "Viale Rovereto 54, 38066 Riva del Garda, Italia", "lat": "45.88127402", "lon": "10.85487306", "checkin_from": "14:00", "checkin_to": "00:00", "checkout_from": "07:00", "checkout_to": "11:00", "Animali": true, "Parcheggio": true, "Internet": true, "Servizi benessere": false, "Servizi di ristorazione": true},
{"name": "Hotel Eden am Reschensee", "type": "Hotel", "address": "Hauptstrasse 4, 39027 Resia, Italia", "lat": "46.82721213", "lon": "10.52143693", "checkin_from": "15:00", "checkin_to": "19:00", "checkout_from": "08:00", "checkout_to": "11:00", "Animali": false, "Parcheggio": true, "Internet": true, "Servizi benessere": true, "Servizi di ristorazione": true},
{"name": "Chalet Agave", "type": "Residence", "address": "Gmund 8 - Kalterer See, 39051 Caldaro, Italia", "lat": "46.35650271", "lon": "11.27892851", "checkin_from": "15:00", "checkin_to": "18:00", "checkout_from": null, "checkout_to": "10:00", "Animali": false, "Parcheggio": true, "Internet": true, "Servizi benessere": true, "Servizi di ristorazione": false},
{"name": "Schwarzplatterhof", "type": "Appartamenti", "address": "Laberserstra\u00dfe 35, 39012 Merano, Italia", "lat": "46.66684035", "lon": "11.19408667", "checkin_from": "14:00", "checkin_to": "20:00", "checkout_from": null, "checkout_to": "10:00", "Animali": false, "Parcheggio": true, "Internet": true, "Servizi benessere": false, "Servizi di ristorazione": false},
{"name": "Cityhotel Goldener Adler B&B", "type": "Hotel", "address": "Piazza Fraghes 14, 39043 Chiusa, Italia", "lat": "46.63810405", "lon": "11.56227350", "checkin_from": "15:00", "checkin_to": "22:00", "checkout_from": "07:30", "checkout_to": "11:00", "Animali": true, "Parcheggio": true, "Internet": true, "Servizi benessere": true, "Servizi di ristorazione": true},
{"name": "ABIS - Dolomites", "type": "Hotel", "address": "Gaisjochweg 1, 39037 Valles, Italia", "lat": "46.84356834", "lon": "11.62792861", "checkin_from": "14:00", "checkin_to": "20:00", "checkout_from": "08:00", "checkout_to": "11:00", "Animali": true, "Parcheggio": true, "Internet": true, "Servizi benessere": false, "Servizi di ristorazione": true},
{"name": "Appartamenti Stefan", "type": "Appartamenti", "address": "88 Streda Dolomites Campitello di Fassa, 38031 Campitello di Fassa, Italia", "lat": "46.47649160", "lon": "11.74393872", "checkin_from": "15:00", "checkin_to": "19:00", "checkout_from": "00:00", "checkout_to": "09:00", "Animali": true, "Parcheggio": true, "Internet": true, "Servizi benessere": false, "Servizi di ristorazione": false},
{"name": "Hotel Dahu", "type": "Hotel", "address": "Via Cima Tosa 101, 38086 Madonna di Campiglio, Italia", "lat": "46.23435168", "lon": "10.82343221", "checkin_from": "12:00", "checkin_to": "23:30", "checkout_from": "07:30", "checkout_to": "10:00", "Animali": false, "Parcheggio": true, "Internet": true, "Servizi benessere": true, "Servizi di ristorazione": true},
{"name": "Hotel Centrale", "type": "Hotel", "address": "Piazza III Novembre N. 27, 38066 Riva del Garda, Italia", "lat": "45.88490750", "lon": "10.83994657", "checkin_from": "14:00", "checkin_to": "20:00", "checkout_from": "07:30", "checkout_to": "10:00", "Animali": true, "Parcheggio": true, "Internet": true, "Servizi benessere": false, "Servizi di ristorazione": true},
{"name": "Apartments Victoria", "type": "Appartamento", "address": "Via Doss 8, 39046 Ortisei, Italia", "lat": "46.57845105", "lon": "11.67289435", "checkin_from": "14:00", "checkin_to": null, "checkout_from": null, "checkout_to": "09:00", "Animali": true, "Parcheggio": true, "Internet": true, "Servizi benessere": true, "Servizi di ristorazione": false},
{"name": "Marerhof", "type": "Appartamenti", "address": "Ratsberg 5 Marerhof, 39034 Dobbiaco, Italia", "lat": "46.74724425", "lon": "12.21675483", "checkin_from": "14:00", "checkin_to": "22:00", "checkout_from": "06:00", "checkout_to": "09:30", "Animali": true, "Parcheggio": true, "Internet": true, "Servizi benessere": false, "Servizi di ristorazione": false},
{"name": "Residenza Rocca del Lago", "type": "Appartamento", "address": "5 Via Giuseppe Mazzini, 38066 Riva del Garda, Italia", "lat": "45.88531600", "lon": "10.84172800", "checkin_from": "16:00", "checkin_to": "00:00", "checkout_from": null, "checkout_to": "10:00", "Animali": false, "Parcheggio": false, "Internet": false, "Servizi benessere": false, "Servizi di ristorazione": false},
{"name": "Hotel Monika", "type": "Hotel", "address": "Parkweg 2, 39030 Sesto, Italia", "lat": "46.69380633", "lon": "12.35773891", "checkin_from": "15:00", "checkin_to": "22:00", "checkout_from": "07:30", "checkout_to": "10:30", "Animali": false, "Parcheggio": true, "Internet": true, "Servizi benessere": false, "Servizi di ristorazione": true},
{"name": "App. Sun Burdengeja", "type": "Appartamento", "address": "28 Via Daunei, 39048 Selva di Val Gardena, Italia", "lat": "46.56036094", "lon": "11.75688815", "checkin_from": "14:00", "checkin_to": "22:00", "checkout_from": null, "checkout_to": "09:30", "Animali": true, "Parcheggio": true, "Internet": true, "Servizi benessere": false, "Servizi di ristorazione": true},
{"name": "Naturhotel Die Waldruhe", "type": "Hotel", "address": "Kofelweg 2, 39030 Chienes, Italia", "lat": "46.82208809", "lon": "11.83871269", "checkin_from": "15:00", "checkin_to": "20:00", "checkout_from": "07:30", "checkout_to": "10:00", "Animali": true, "Parcheggio": true, "Internet": true, "Servizi benessere": false, "Servizi di ristorazione": true},
{"name": "Hotel Belvedere", "type": "Hotel", "address": "Via Pichl, 15, 39050 San Genesio Atesino, Italia", "lat": "46.53171570", "lon": "11.33905130", "checkin_from": "15:00", "checkin_to": "20:00", "checkout_from": "07:30", "checkout_to": "11:00", "Animali": true, "Parcheggio": true, "Internet": true, "Servizi benessere": false, "Servizi di ristorazione": true},
{"name": "Hotel Bristol", "type": "Hotel", "address": "Viale Trento 71, 38066 Riva del Garda, Italia", "lat": "45.89595211", "lon": "10.85047960", "checkin_from": "14:30", "checkin_to": "22:00", "checkout_from": "07:30", "checkout_to": "10:00", "Animali": true, "Parcheggio": true, "Internet": true, "Servizi benessere": false, "Servizi di ristorazione": true},
{"name": "Apartments Mezdi", "type": "Appartamenti", "address": "Via Val 10, 39047 Santa Cristina in Val Gardena, Italia", "lat": "46.55890088", "lon": "11.72106564", "checkin_from": "14:00", "checkin_to": "20:30", "checkout_from": null, "checkout_to": "09:00", "Animali": false, "Parcheggio": true, "Internet": true, "Servizi benessere": false, "Servizi di ristorazione": false},
{"name": "Casa Belvedere", "type": "Appartamento", "address": "89 Via Alber\u00e8, 38050 Tenna , Italia", "lat": "46.01927705", "lon": "11.26298941", "checkin_from": "15:00", "checkin_to": "19:00", "checkout_from": "08:00", "checkout_to": "10:00", "Animali": true, "Parcheggio": true, "Internet": true, "Servizi benessere": false, "Servizi di ristorazione": true},
{"name": "Chalet ai Monti di Zuclo - Tione", "type": "Chalet", "address": "Via ai Monti, 38079 Tione di Trento, Italia", "lat": "46.03047887", "lon": "10.75641663", "checkin_from": "13:00", "checkin_to": "20:00", "checkout_from": "08:00", "checkout_to": "11:00", "Animali": true, "Parcheggio": true, "Internet": true, "Servizi benessere": false, "Servizi di ristorazione": true},
{"name": "Eco Hotel Bonapace", "type": "Hotel", "address": "Via Strada Piccola 15, 38069 Nago-Torbole, Italia", "lat": "45.87414753", "lon": "10.87761685", "checkin_from": "14:00", "checkin_to": "20:00", "checkout_from": "08:30", "checkout_to": "10:30", "Animali": false, "Parcheggio": true, "Internet": true, "Servizi benessere": true, "Servizi di ristorazione": true},
{"name": "Schlosswirt Forst", "type": "Bed & breakfast", "address": "4 Via Venosta, 39022 Lagundo, Italia", "lat": "46.67807002", "lon": "11.11922772", "checkin_from": "14:00", "checkin_to": "18:00", "checkout_from": "08:30", "checkout_to": "10:00", "Animali": true, "Parcheggio": true, "Internet": true, "Servizi benessere": false, "Servizi di ristorazione": true},
{"name": "Mederle Hof", "type": "Appartamenti", "address": "St. Justinaweg 59A, 39057 Appiano sulla Strada del Vino, Italia", "lat": "46.47090000", "lon": "11.25408000", "checkin_from": "14:00", "checkin_to": "22:00", "checkout_from": "00:00", "checkout_to": "10:00", "Animali": true, "Parcheggio": true, "Internet": true, "Servizi benessere": false, "Servizi di ristorazione": true},
{"name": "Arosea Life Balance Hotel", "type": "Hotel", "address": "Pracupola al lago 355, 39016 Santa Valburga, Italia", "lat": "46.53216656", "lon": "10.96122801", "checkin_from": "14:00", "checkin_to": "18:00", "checkout_from": null, "checkout_to": "11:00", "Animali": true, "Parcheggio": true, "Internet": true, "Servizi benessere": true, "Servizi di ristorazione": true},
{"name": "Hotel Goldener Stern", "type": "Hotel", "address": "Andreas-Hofer-Strasse 28, 39052 Caldaro, Italia", "lat": "46.41397229", "lon": "11.24607754", "checkin_from": "11:00", "checkin_to": "22:00", "checkout_from": "08:00", "checkout_to": "11:00", "Animali": true, "Parcheggio": true, "Internet": true, "Servizi benessere": false, "Servizi di ristorazione": true},
{"name": "Hotel Lamm", "type": "Hotel", "address": "Neustadt 16, 39049 Vipiteno, Italia", "lat": "46.89800154", "lon": "11.43082917", "checkin_from": "12:00", "checkin_to": "21:30", "checkout_from": "07:30", "checkout_to": "11:00", "Animali": true, "Parcheggio": true, "Internet": true, "Servizi benessere": true, "Servizi di ristorazione": true},
{"name": "Hotel Villa Alberta", "type": "Hotel", "address": "Via Strada Piccola 24, 38069 Nago-Torbole, Italia", "lat": "45.87309129", "lon": "10.87752700", "checkin_from": "14:00", "checkin_to": "21:00", "checkout_from": "08:00", "checkout_to": "11:00", "Animali": false, "Parcheggio": true, "Internet": true, "Servizi benessere": true, "Servizi di ristorazione": true},
{"name": "Mountain Apartments Gran Tubl\u00e1", "type": "Appartamenti", "address": "Str. Scurci\u00e1 35, 39046 Ortisei, Italia", "lat": "46.57821105", "lon": "11.66696280", "checkin_from": "14:00", "checkin_to": "18:00", "checkout_from": "08:00", "checkout_to": "10:30", "Animali": false, "Parcheggio": true, "Internet": true, "Servizi benessere": true, "Servizi di ristorazione": true},
{"name": "Wohnzimmer", "type": "Appartamenti", "address": "Via Dr. Streiter 31, 39100 Bolzano, Italia", "lat": "46.50012108", "lon": "11.35439213", "checkin_from": "16:00", "checkin_to": "19:00", "checkout_from": null, "checkout_to": "10:00", "Animali": false, "Parcheggio": true, "Internet": true, "Servizi benessere": false, "Servizi di ristorazione": true},
{"name": "Hotel Pustertalerhof", "type": "Hotel", "address": "Im Linda 16, 39030 Chienes, Italia", "lat": "46.80641042", "lon": "11.83700557", "checkin_from": "14:00", "checkin_to": "19:00", "checkout_from": "07:30", "checkout_to": "10:00", "Animali": false, "Parcheggio": true, "Internet": true, "Servizi benessere": false, "Servizi di ristorazione": true},
{"name": "Apartments Obermayr", "type": "Appartamenti", "address": "Treibgasse 12/B, 39011 Lana, Italia", "lat": "46.60937378", "lon": "11.15736455", "checkin_from": "14:00", "checkin_to": "19:00", "checkout_from": "08:00", "checkout_to": "10:00", "Animali": true, "Parcheggio": true, "Internet": true, "Servizi benessere": false, "Servizi di ristorazione": true},
{"name": "Hotel Filipinum", "type": "Hotel", "address": "G. Parinistra\u00dfe 3, 39012 Merano, Italia", "lat": "46.66467756", "lon": "11.17094457", "checkin_from": "14:30", "checkin_to": "18:30", "checkout_from": "08:30", "checkout_to": "10:00", "Animali": false, "Parcheggio": true, "Internet": true, "Servizi benessere": false, "Servizi di ristorazione": true},
{"name": "Hotel Vermoi", "type": "Hotel", "address": "Reichstra\u00dfe 4, 39021 Laces, Italia", "lat": "46.62214041", "lon": "10.86381823", "checkin_from": "15:00", "checkin_to": "22:00", "checkout_from": "08:00", "checkout_to": "11:00", "Animali": true, "Parcheggio": true, "Internet": true, "Servizi benessere": false, "Servizi di ristorazione": true},
{"name": "Huber Hof Apartment", "type": "Appartamenti", "address": "Laurinstra\u00dfe, 111, 39012 Merano, Italia", "lat": "46.69008766", "lon": "11.14206337", "checkin_from": "15:00", "checkin_to": "19:00", "checkout_from": "09:00", "checkout_to": "10:00", "Animali": true, "Parcheggio": true, "Internet": true, "Servizi benessere": false, "Servizi di ristorazione": true},
{"name": "Cooper Apartments", "type": "Appartamenti", "address": "33 Via dei Bottai , 39100 Bolzano, Italia", "lat": "46.49983830", "lon": "11.35694410", "checkin_from": "14:30", "checkin_to": "19:00", "checkout_from": "08:00", "checkout_to": "10:00", "Animali": false, "Parcheggio": true, "Internet": true, "Servizi benessere": false, "Servizi di ristorazione": false},
{"name": "Antonya Apartments", "type": "Appartamenti", "address": "Via Ifinger 1, 39017 Scena, Italia", "lat": "46.69546720", "lon": "11.19486260", "checkin_from": "14:00", "checkin_to": "00:00", "checkout_from": "10:00", "checkout_to": "10:30", "Animali": true, "Parcheggio": true, "Internet": true, "Servizi benessere": false, "Servizi di ristorazione": true},
{"name": "Hotel Jarolim", "type": "Hotel", "address": "Bahnhofplatz 1, 39042 Bressanone, Italia", "lat": "46.71055253", "lon": "11.65038943", "checkin_from": "15:00", "checkin_to": "23:00", "checkout_from": "08:00", "checkout_to": "11:00", "Animali": false, "Parcheggio": true, "Internet": true, "Servizi benessere": false, "Servizi di ristorazione": true},
{"name": "Residence Cesa Sassela", "type": "Residence", "address": "Via Sobosch 12, 39046 Ortisei, Italia", "lat": "46.57877152", "lon": "11.67124897", "checkin_from": "14:00", "checkin_to": "20:00", "checkout_from": "09:00", "checkout_to": "09:30", "Animali": false, "Parcheggio": true, "Internet": true, "Servizi benessere": false, "Servizi di ristorazione": false},
{"name": "Gartenappartements Die M\u00fchle", "type": "Appartamenti", "address": "19 Pfuss, 39052 Caldaro, Italia", "lat": "46.41159000", "lon": "11.23133000", "checkin_from": "15:00", "checkin_to": "18:00", "checkout_from": null, "checkout_to": "10:00", "Animali": false, "Parcheggio": true, "Internet": true, "Servizi benessere": false, "Servizi di ristorazione": true},
{"name": "Ahner Berghof", "type": "Agriturismo", "address": "Ahnerberg 106, 39037 Rodengo, Italia", "lat": "46.79486114", "lon": "11.70867427", "checkin_from": "11:00", "checkin_to": "18:00", "checkout_from": "11:00", "checkout_to": "12:00", "Animali": true, "Parcheggio": true, "Internet": true, "Servizi benessere": false, "Servizi di ristorazione": true},
{"name": "Hotel Regina", "type": "Hotel", "address": "Via Renon 1, 39100 Bolzano, Italia", "lat": "46.49731212", "lon": "11.35908812", "checkin_from": "14:00", "checkin_to": "00:00", "checkout_from": null, "checkout_to": "11:00", "Animali": true, "Parcheggio": true, "Internet": true, "Servizi benessere": false, "Servizi di ristorazione": true},
{"name": "La Casa sul Lago", "type": "Casa vacanze", "address": "Localit\u00e0 Dom 6, 38066 Riva del Garda, Italia", "lat": "45.89917700", "lon": "10.83232400", "checkin_from": "14:00", "checkin_to": "23:30", "checkout_from": "05:00", "checkout_to": "11:30", "Animali": true, "Parcheggio": true, "Internet": true, "Servizi benessere": false, "Servizi di ristorazione": true},
{"name": "Villa Jasmine Guest House", "type": "Appartamenti", "address": "Via Giosu\u00e8 Carducci 15/a, 39100 Bolzano, Italia", "lat": "46.49596040", "lon": "11.35083710", "checkin_from": "15:00", "checkin_to": "19:00", "checkout_from": null, "checkout_to": "10:00", "Animali": false, "Parcheggio": true, "Internet": true, "Servizi benessere": true, "Servizi di ristorazione": false},
{"name": "Hotel Buonconsiglio", "type": "Hotel", "address": "Via Romagnosi 16, 38100 Trento, Italia", "lat": "46.07285475", "lon": "11.12253606", "checkin_from": "14:00", "checkin_to": "00:00", "checkout_from": "07:00", "checkout_to": "12:00", "Animali": true, "Parcheggio": true, "Internet": true, "Servizi benessere": false, "Servizi di ristorazione": true},
{"name": "Ideale per famiglie e piccoli gruppi + WiFi + Garage", "type": "Appartamento", "address": "103 Via Garibaldi, 38056 Levico Terme, Italia", "lat": "46.01287920", "lon": "11.29785250", "checkin_from": "15:00", "checkin_to": "00:00", "checkout_from": "06:00", "checkout_to": "11:00", "Animali": true, "Parcheggio": true, "Internet": true, "Servizi benessere": false, "Servizi di ristorazione": true},
{"name": "Birkenhof", "type": "Appartamenti", "address": "N\u00f6rderstra\u00dfe 43, 39020 Marlengo, Italia", "lat": "46.67564870", "lon": "11.12035164", "checkin_from": "14:00", "checkin_to": "21:00", "checkout_from": "00:00", "checkout_to": "10:00", "Animali": false, "Parcheggio": true, "Internet": true, "Servizi benessere": true, "Servizi di ristorazione": true},
{"name": "Apt. Laurino", "type": "Appartamento", "address": "96 Via Dolomiti, 38031 Campitello di Fassa, Italia", "lat": "46.47641445", "lon": "11.74452424", "checkin_from": "16:00", "checkin_to": "19:00", "checkout_from": "07:30", "checkout_to": "10:00", "Animali": true, "Parcheggio": true, "Internet": true, "Servizi benessere": true, "Servizi di ristorazione": true},
{"name": "Appartamento Ivo", "type": "Appartamento", "address": "Str\u00e8da De Pecei 18, 38031 Campitello di Fassa, Italia", "lat": "46.47585588", "lon": "11.74183547", "checkin_from": "14:00", "checkin_to": "21:00", "checkout_from": "08:00", "checkout_to": "10:30", "Animali": true, "Parcheggio": true, "Internet": true, "Servizi benessere": true, "Servizi di ristorazione": true},
{"name": "Residence Silvia", "type": "Residence", "address": "Pflegplatz 4, 39038 San Candido, Italia", "lat": "46.73232733", "lon": "12.28266388", "checkin_from": "15:00", "checkin_to": "23:00", "checkout_from": "06:00", "checkout_to": "10:00", "Animali": true, "Parcheggio": true, "Internet": true, "Servizi benessere": true, "Servizi di ristorazione": true},
{"name": "Hotel Grones", "type": "Hotel", "address": "Stufanstr. 110, 39046 Ortisei, Italia", "lat": "46.57319977", "lon": "11.67863846", "checkin_from": "14:00", "checkin_to": "23:00", "checkout_from": "08:00", "checkout_to": "11:00", "Animali": false, "Parcheggio": true, "Internet": true, "Servizi benessere": false, "Servizi di ristorazione": true},
{"name": "Il Nido dei Sogni", "type": "Appartamento", "address": "Via della Trazzia 24, 38010 Sanzeno, Italia", "lat": "46.36886916", "lon": "11.07923217", "checkin_from": "16:00", "checkin_to": "19:00", "checkout_from": "07:30", "checkout_to": "10:00", "Animali": true, "Parcheggio": true, "Internet": true, "Servizi benessere": true, "Servizi di ristorazione": true},
{"name": "Sport & Wellness Hotel Cristallo", "type": "Hotel", "address": "Via De Vettorazzi 2, 38056 Levico Terme, Italia", "lat": "46.01457838", "lon": "11.30238013", "checkin_from": "14:00", "checkin_to": "22:00", "checkout_from": "07:30", "checkout_to": "10:00", "Animali": false, "Parcheggio": true, "Internet": true, "Servizi benessere": false, "Servizi di ristorazione": true},
{"name": "Hotel San Giorgio", "type": "Hotel", "address": "Via S. Giorgio 8, 38062 Arco, Italia", "lat": "45.89919638", "lon": "10.86823717", "checkin_from": "14:00", "checkin_to": "23:00", "checkout_from": null, "checkout_to": "10:00", "Animali": true, "Parcheggio": true, "Internet": true, "Servizi benessere": false, "Servizi di ristorazione": true},
{"name": "Casa Alpino", "type": "Residence", "address": "Via Del Corvo 6, 38066 Riva del Garda, Italia", "lat": "45.88558338", "lon": "10.84047228", "checkin_from": "16:00", "checkin_to": "22:30", "checkout_from": null, "checkout_to": "10:00", "Animali": true, "Parcheggio": true, "Internet": true, "Servizi benessere": false, "Servizi di ristorazione": false},
{"name": "Casa Brugnara", "type": "Appartamento", "address": "Strada Tita Piaz 32, 38036 Pozza di Fassa, Italia", "lat": "46.44021797", "lon": "11.69252694", "checkin_from": "12:00", "checkin_to": "22:00", "checkout_from": "00:00", "checkout_to": "10:00", "Animali": true, "Parcheggio": true, "Internet": true, "Servizi benessere": false, "Servizi di ristorazione": true},
{"name": "Hotel Residence Pernhof", "type": "Residence", "address": "Julius-von-Payer-Str. 21, 39040 Termeno, Italia", "lat": "46.33984330", "lon": "11.23912901", "checkin_from": "15:00", "checkin_to": "22:00", "checkout_from": "08:00", "checkout_to": "11:00", "Animali": false, "Parcheggio": true, "Internet": true, "Servizi benessere": false, "Servizi di ristorazione": true},
{"name": "Der Eggentaler", "type": "Hotel", "address": "Eggentalerstrasse 47, 39053 Bolzano, Italia", "lat": "46.49083271", "lon": "11.39467299", "checkin_from": "14:30", "checkin_to": "00:00", "checkout_from": "07:00", "checkout_to": "11:00", "Animali": true, "Parcheggio": true, "Internet": true, "Servizi benessere": false, "Servizi di ristorazione": true},
{"name": "Fior Apartments Lofts", "type": "Appartamenti", "address": "7 Via Schiller, 39012 Merano, Italia", "lat": "46.66799780", "lon": "11.15807160", "checkin_from": "15:00", "checkin_to": "19:00", "checkout_from": "00:00", "checkout_to": "10:00", "Animali": false, "Parcheggio": true, "Internet": true, "Servizi benessere": false, "Servizi di ristorazione": false},
{"name": "Arco Smart Hotel", "type": "Hotel", "address": "Via Santa Caterina 4/P, 38062 Arco, Italia", "lat": "45.91704390", "lon": "10.88006303", "checkin_from": "14:00", "checkin_to": "23:00", "checkout_from": "07:00", "checkout_to": "10:00", "Animali": true, "Parcheggio": true, "Internet": true, "Servizi benessere": false, "Servizi di ristorazione": true},
{"name": "Villa Dei Tigli", "type": "Appartamento", "address": "Viale Dei Tigli 16, 38066 Riva del Garda, Italia", "lat": "45.89149036", "lon": "10.84305827", "checkin_from": "18:00", "checkin_to": "20:30", "checkout_from": "08:00", "checkout_to": "10:00", "Animali": true, "Parcheggio": true, "Internet": true, "Servizi benessere": false, "Servizi di ristorazione": true},
{"name": "Palace Hotel Citt\u00e0", "type": "Hotel", "address": "Viale Roma 10, 38062 Arco, Italia", "lat": "45.91666137", "lon": "10.88262320", "checkin_from": "14:00", "checkin_to": null, "checkout_from": null, "checkout_to": "10:00", "Animali": true, "Parcheggio": true, "Internet": true, "Servizi benessere": false, "Servizi di ristorazione": true},
{"name": "Alpenchalets Mair", "type": "Chalet", "address": "Via Watschinger 10, 39030 Sesto, Italia", "lat": "46.70751720", "lon": "12.33948760", "checkin_from": "15:00", "checkin_to": "21:00", "checkout_from": "08:00", "checkout_to": "10:00", "Animali": true, "Parcheggio": true, "Internet": true, "Servizi benessere": false, "Servizi di ristorazione": false},
{"name": "Residence Fever", "type": "Residence", "address": "Via Rezia 230, 39046 Ortisei, Italia", "lat": "46.57206396", "lon": "11.67665899", "checkin_from": "14:00", "checkin_to": "21:00", "checkout_from": null, "checkout_to": "09:30", "Animali": false, "Parcheggio": true, "Internet": true, "Servizi benessere": false, "Servizi di ristorazione": false},
{"name": "Garni Settsass", "type": "Bed & breakfast", "address": "Via Sor\u00e0 11, 39033 Colfosco, Italia", "lat": "46.55415488", "lon": "11.85705749", "checkin_from": "15:00", "checkin_to": "22:00", "checkout_from": null, "checkout_to": "10:00", "Animali": true, "Parcheggio": true, "Internet": true, "Servizi benessere": false, "Servizi di ristorazione": true},
{"name": "Ambassador Suite Hotel", "type": "Hotel", "address": "Via Longa 16, 38066 Riva del Garda, Italia", "lat": "45.88187900", "lon": "10.85818827", "checkin_from": "15:00", "checkin_to": "23:00", "checkout_from": "08:00", "checkout_to": "10:00", "Animali": false, "Parcheggio": true, "Internet": true, "Servizi benessere": false, "Servizi di ristorazione": true},
{"name": "Apartments Bo\u00e8", "type": "Residence", "address": "Strada Paul 40 , 39047 Santa Cristina in Val Gardena, Italia", "lat": "46.55988204", "lon": "11.71742320", "checkin_from": "17:00", "checkin_to": null, "checkout_from": null, "checkout_to": "10:00", "Animali": false, "Parcheggio": true, "Internet": true, "Servizi benessere": false, "Servizi di ristorazione": false},
{"name": "Residence Contrin", "type": "Residence", "address": "Streda De Pareda 101, 38032 Canazei, Italia", "lat": "46.47293231", "lon": "11.77656591", "checkin_from": "17:00", "checkin_to": "20:00", "checkout_from": "08:00", "checkout_to": "10:00", "Animali": false, "Parcheggio": true, "Internet": true, "Servizi benessere": false, "Servizi di ristorazione": false},
{"name": "Bella Ariston", "type": "Appartamento", "address": "27 Rennweg, 39012 Merano, Italia", "lat": "46.67129000", "lon": "11.15809000", "checkin_from": "16:00", "checkin_to": "22:00", "checkout_from": "09:00", "checkout_to": "11:00", "Animali": true, "Parcheggio": true, "Internet": true, "Servizi benessere": true, "Servizi di ristorazione": true},
{"name": "Casa del quadrifoglio", "type": "Casa vacanze", "address": "Via Dossi 28, 38033 Cavalese, Italia", "lat": "46.28941000", "lon": "11.45424000", "checkin_from": "15:00", "checkin_to": "16:00", "checkout_from": "09:00", "checkout_to": "10:00", "Animali": true, "Parcheggio": true, "Internet": true, "Servizi benessere": false, "Servizi di ristorazione": true},
{"name": "Aparthotel Kastel Seiser Alm", "type": "Residence", "address": "Grondlbodenweg 7, 39040 Castelrotto, Italia", "lat": "46.56876704", "lon": "11.56240761", "checkin_from": "15:00", "checkin_to": "22:00", "checkout_from": null, "checkout_to": "10:00", "Animali": true, "Parcheggio": true, "Internet": true, "Servizi benessere": false, "Servizi di ristorazione": true},
{"name": "Guesthouse48", "type": "Appartamento", "address": "Via Andreas Hofer 4, 39100 Bolzano, Italia", "lat": "46.50066589", "lon": "11.35982037", "checkin_from": "14:00", "checkin_to": "17:00", "checkout_from": "09:00", "checkout_to": "11:00", "Animali": true, "Parcheggio": true, "Internet": true, "Servizi benessere": false, "Servizi di ristorazione": true},
{"name": "Residence Montana", "type": "Residence", "address": "Lorettweg 4, 39027 Resia, Italia", "lat": "46.82976010", "lon": "10.51801681", "checkin_from": "15:00", "checkin_to": "20:00", "checkout_from": "08:00", "checkout_to": "09:00", "Animali": true, "Parcheggio": true, "Internet": true, "Servizi benessere": true, "Servizi di ristorazione": false},
{"name": "Residenza Il Cavaliere del Lago", "type": "Appartamento", "address": "Via Fiume - Sottoportico del Marocco, 2, 38066 Riva del Garda, Italia", "lat": "45.88548168", "lon": "10.83913659", "checkin_from": "16:00", "checkin_to": null, "checkout_from": null, "checkout_to": "10:00", "Animali": false, "Parcheggio": false, "Internet": false, "Servizi benessere": false, "Servizi di ristorazione": false},
{"name": "Monroc Hotel", "type": "Hotel", "address": "Stazione Telecabina 2, 38020 Commezzadura, Italia", "lat": "46.31910311", "lon": "10.83760832", "checkin_from": "14:00", "checkin_to": "20:30", "checkout_from": "08:00", "checkout_to": "10:00", "Animali": false, "Parcheggio": true, "Internet": true, "Servizi benessere": true, "Servizi di ristorazione": true},
{"name": "Hotel Clara", "type": "Hotel", "address": "Via Brennero, 64, 39040 Bressanone, Italia", "lat": "46.73462530", "lon": "11.64622664", "checkin_from": "12:00", "checkin_to": "21:00", "checkout_from": "07:30", "checkout_to": "10:00", "Animali": false, "Parcheggio": true, "Internet": true, "Servizi benessere": false, "Servizi di ristorazione": true},
{"name": "Der Verdinser Hof", "type": "Hotel", "address": "Verdines 7, 39017 Scena, Italia", "lat": "46.71234179", "lon": "11.20451450", "checkin_from": "14:00", "checkin_to": "21:30", "checkout_from": "08:00", "checkout_to": "11:00", "Animali": false, "Parcheggio": true, "Internet": true, "Servizi benessere": false, "Servizi di ristorazione": true},
{"name": "Hotel Rudy", "type": "Hotel", "address": "Via San Nazzaro 81, 38066 Riva del Garda, Italia", "lat": "45.89964996", "lon": "10.85534245", "checkin_from": "14:00", "checkin_to": "18:00", "checkout_from": "07:00", "checkout_to": "10:00", "Animali": true, "Parcheggio": true, "Internet": true, "Servizi benessere": false, "Servizi di ristorazione": true},
{"name": "Parkhotel Luna Mondschein", "type": "Hotel", "address": "Piave 15, 39100 Bolzano, Italia", "lat": "46.49982133", "lon": "11.35811448", "checkin_from": "15:00", "checkin_to": "00:00", "checkout_from": null, "checkout_to": "12:00", "Animali": true, "Parcheggio": true, "Internet": true, "Servizi benessere": true, "Servizi di ristorazione": true},
{"name": "NH Trento", "type": "Hotel", "address": "Via Adalberto Libera S/N, 38121 Trento, Italia", "lat": "46.05908990", "lon": "11.11474750", "checkin_from": "15:00", "checkin_to": null, "checkout_from": null, "checkout_to": "12:00", "Animali": true, "Parcheggio": true, "Internet": true, "Servizi benessere": true, "Servizi di ristorazione": true},
{"name": "Hotel zum Wolf", "type": "Hotel", "address": "Oswald von Wolkensteinstrasse 5, 39040 Castelrotto, Italia", "lat": "46.56750409", "lon": "11.56018160", "checkin_from": "14:00", "checkin_to": "19:30", "checkout_from": "07:30", "checkout_to": "10:30", "Animali": false, "Parcheggio": true, "Internet": true, "Servizi benessere": false, "Servizi di ristorazione": true},
{"name": "Paloria Apartments & Sport", "type": "Residence", "address": "OBERPLARS 10, 39022 Lagundo, Italia", "lat": "46.68805961", "lon": "11.10237170", "checkin_from": "14:00", "checkin_to": "19:00", "checkout_from": "07:00", "checkout_to": "10:00", "Animali": false, "Parcheggio": true, "Internet": true, "Servizi benessere": false, "Servizi di ristorazione": true},
{"name": "Hotel Goldene Traube", "type": "Hotel", "address": "Julius Von Payer Stra\u00dfe 2, 39040  Termeno, Italia", "lat": "46.34105433", "lon": "11.23928189", "checkin_from": "14:00", "checkin_to": "18:00", "checkout_from": "08:00", "checkout_to": "10:00", "Animali": true, "Parcheggio": true, "Internet": true, "Servizi benessere": false, "Servizi di ristorazione": true},
{"name": "Residence Silvia", "type": "Residence", "address": "Pflegplatz 4, 39038 San Candido, Italia", "lat": "46.73232733", "lon": "12.28266388", "checkin_from": "15:00", "checkin_to": "23:00", "checkout_from": "06:00", "checkout_to": "10:00", "Animali": true, "Parcheggio": true, "Internet": true, "Servizi benessere": true, "Servizi di ristorazione": true},
{"name": "La Casa al Noce", "type": "Residence", "address": "Via per Marilleva, 26, 38020 Mezzana, Italia", "lat": "46.31598239", "lon": "10.79622902", "checkin_from": "17:00", "checkin_to": "20:00", "checkout_from": "09:00", "checkout_to": "09:30", "Animali": false, "Parcheggio": true, "Internet": true, "Servizi benessere": false, "Servizi di ristorazione": false},
{"name": "Guesthouse48", "type": "Appartamento", "address": "Via Andreas Hofer 4, 39100 Bolzano, Italia", "lat": "46.50066589", "lon": "11.35982037", "checkin_from": "14:00", "checkin_to": "17:00", "checkout_from": "09:00", "checkout_to": "11:00", "Animali": true, "Parcheggio": true, "Internet": true, "Servizi benessere": false, "Servizi di ristorazione": true},
{"name": "Hotel Grones", "type": "Hotel", "address": "Stufanstr. 110, 39046 Ortisei, Italia", "lat": "46.57319977", "lon": "11.67863846", "checkin_from": "14:00", "checkin_to": "23:00", "checkout_from": "08:00", "checkout_to": "11:00", "Animali": false, "Parcheggio": true, "Internet": true, "Servizi benessere": false, "Servizi di ristorazione": true},
{"name": "Appartamento Ivo", "type": "Appartamento", "address": "Str\u00e8da De Pecei 18, 38031 Campitello di Fassa, Italia", "lat": "46.47585588", "lon": "11.74183547", "checkin_from": "14:00", "checkin_to": "21:00", "checkout_from": "08:00", "checkout_to": "10:30", "Animali": true, "Parcheggio": true, "Internet": true, "Servizi benessere": true, "Servizi di ristorazione": true},
{"name": "Casa del quadrifoglio", "type": "Casa vacanze", "address": "Via Dossi 28, 38033 Cavalese, Italia", "lat": "46.28941000", "lon": "11.45424000", "checkin_from": "15:00", "checkin_to": "16:00", "checkout_from": "09:00", "checkout_to": "10:00", "Animali": true, "Parcheggio": true, "Internet": true, "Servizi benessere": false, "Servizi di ristorazione": true},
{"name": "Appartamenti Col Rodella", "type": "Appartamenti", "address": "Streda Dolomites 96, 38031 Campitello di Fassa, Italia", "lat": "46.47677000", "lon": "11.74424500", "checkin_from": "15:00", "checkin_to": "20:00", "checkout_from": "05:00", "checkout_to": "09:00", "Animali": true, "Parcheggio": true, "Internet": true, "Servizi benessere": false, "Servizi di ristorazione": false},
{"name": "Aparthotel Kastel Seiser Alm", "type": "Residence", "address": "Grondlbodenweg 7, 39040 Castelrotto, Italia", "lat": "46.56876704", "lon": "11.56240761", "checkin_from": "15:00", "checkin_to": "22:00", "checkout_from": null, "checkout_to": "10:00", "Animali": true, "Parcheggio": true, "Internet": true, "Servizi benessere": false, "Servizi di ristorazione": true},